% program   : RTKPOST ver.2.4.3 b33
% inp file  : E:\Alex_Working\ACO\Cruickshank\March 08-12th\1 Raw\Rover\20180680.21O
% inp file  : E:\Alex_Working\ACO\Cruickshank\March 08-12th\1 Raw\Base\Cru_0680.21O
% inp file  : E:\Alex_Working\ACO\Cruickshank\March 08-12th\1 Raw\Base\Cru_0680.21N
% obs start : 2021/03/10 20:40:00.0 GPST (week2148 333600.0s)
% obs end   : 2021/03/10 21:08:22.0 GPST (week2148 335302.0s)
% pos mode  : kinematic
% freqs     : L1+L2+L5
% solution  : forward
% elev mask : 15.0 deg
% dynamics  : on
% tidecorr  : off
% ionos opt : broadcast
% tropo opt : saastamoinen
% ephemeris : broadcast
% navi sys  : gps glonass galileo qzss beidou sbas
% amb res   : fix and hold
% amb glo   : on
% val thres : 3.0
% antenna1  :                       ( 0.0000  0.0000  0.0000)
% antenna2  :                       ( 0.0000  0.0000  0.0000)
% ref pos   : 49.668999650 -125.361727958  1351.2447
%
% (lat/lon/height=WGS84/ellipsoidal,Q=1:fix,2:float,3:sbas,4:dgps,5:single,6:ppp,ns=# of satellites)
%  GPST                  latitude(deg) longitude(deg)  height(m)   Q  ns   sdn(m)   sde(m)   sdu(m)  sdne(m)  sdeu(m)  sdun(m) age(s)  ratio
2021/03/10 20:40:00.000   49.674130085 -125.377271360  1265.0518   1   8   0.0062   0.0047   0.0101   0.0029   0.0013  -0.0017   0.00    4.4
2021/03/10 20:40:01.000   49.674130105 -125.377271378  1265.0361   1   8   0.0062   0.0047   0.0101   0.0029   0.0013  -0.0016   0.00    4.6
2021/03/10 20:40:02.000   49.674129957 -125.377271513  1265.0671   1   8   0.0082   0.0070   0.0164   0.0059  -0.0081  -0.0082   0.00    4.4
2021/03/10 20:40:03.000   49.674130122 -125.377271445  1265.0462   1   8   0.0082   0.0070   0.0164   0.0059  -0.0081  -0.0082   0.00    4.0
2021/03/10 20:40:04.000   49.674130062 -125.377271491  1265.0512   1   8   0.0082   0.0070   0.0164   0.0059  -0.0081  -0.0082   0.00    3.9
2021/03/10 20:40:05.000   49.674129886 -125.377271718  1265.0996   1   8   0.0082   0.0070   0.0164   0.0059  -0.0081  -0.0082   0.00    3.7
2021/03/10 20:40:06.000   49.674130154 -125.377271283  1265.0331   1   8   0.0062   0.0048   0.0108   0.0028  -0.0015  -0.0009   0.00    3.4
2021/03/10 20:40:07.000   49.674130197 -125.377271333  1265.0402   1   8   0.0062   0.0048   0.0108   0.0028  -0.0015  -0.0009   0.00    3.2
2021/03/10 20:40:08.000   49.674130147 -125.377271281  1265.0242   1   8   0.0062   0.0048   0.0108   0.0028  -0.0015  -0.0009   0.00    3.2
2021/03/10 20:40:09.000   49.674136103 -125.377267626  1267.7917   2   8   0.1985   0.1529   0.3372   0.0982  -0.0536  -0.0797   0.00    2.8
2021/03/10 20:40:10.000   49.674136130 -125.377267692  1267.8402   2   8   0.1887   0.1454   0.3206   0.0927  -0.0488  -0.0740   0.00    2.6
2021/03/10 20:40:11.000   49.674136345 -125.377267517  1267.8676   2   8   0.1802   0.1389   0.3063   0.0880  -0.0449  -0.0693   0.00    2.4
2021/03/10 20:40:12.000   49.674136270 -125.377267681  1267.9057   2   8   0.1727   0.1332   0.2937   0.0839  -0.0417  -0.0654   0.00    1.0
2021/03/10 20:40:13.000   49.674136009 -125.377267839  1267.9455   2   8   0.1661   0.1281   0.2825   0.0804  -0.0390  -0.0622   0.00    1.0
2021/03/10 20:40:14.000   49.674136005 -125.377267917  1267.9648   2   8   0.1602   0.1236   0.2725   0.0772  -0.0367  -0.0594   0.00    1.0
2021/03/10 20:40:15.000   49.674135951 -125.377267989  1267.9845   2   8   0.1548   0.1195   0.2634   0.0743  -0.0347  -0.0571   0.00    1.0
2021/03/10 20:40:16.000   49.674135863 -125.377267990  1267.9868   2   8   0.1499   0.1158   0.2552   0.0718  -0.0330  -0.0550   0.00    1.0
2021/03/10 20:40:17.000   49.674135763 -125.377267976  1267.9793   2   8   0.1454   0.1124   0.2477   0.0694  -0.0315  -0.0533   0.00    1.0
2021/03/10 20:40:18.000   49.674135692 -125.377267844  1267.9392   2   8   0.1413   0.1093   0.2408   0.0673  -0.0303  -0.0518   0.00    1.0
2021/03/10 20:40:19.000   49.674135616 -125.377267807  1267.8894   2   8   0.1375   0.1065   0.2345   0.0653  -0.0292  -0.0505   0.00    1.0
2021/03/10 20:40:20.000   49.674135609 -125.377267634  1267.8249   2   8   0.1341   0.1039   0.2288   0.0638  -0.0290  -0.0500   0.00    1.0
2021/03/10 20:40:21.000   49.674135610 -125.377267630  1267.7784   2   8   0.1308   0.1015   0.2233   0.0621  -0.0282  -0.0490   0.00    1.0
2021/03/10 20:40:22.000   49.674135570 -125.377267568  1267.7268   2   8   0.1278   0.0992   0.2182   0.0605  -0.0275  -0.0481   0.00    1.0
2021/03/10 20:40:23.000   49.674135552 -125.377267474  1267.6736   2   8   0.1249   0.0970   0.2134   0.0590  -0.0269  -0.0474   0.00    1.0
2021/03/10 20:40:24.000   49.674135531 -125.377267449  1267.6319   2   8   0.1222   0.0950   0.2089   0.0577  -0.0263  -0.0467   0.00    1.0
2021/03/10 20:40:25.000   49.674135422 -125.377267441  1267.5990   2   8   0.1196   0.0931   0.2046   0.0564  -0.0258  -0.0461   0.00    1.0
2021/03/10 20:40:26.000   49.674135283 -125.377267572  1267.5827   2   8   0.1175   0.0916   0.2013   0.0556  -0.0274  -0.0469   0.00    1.0
2021/03/10 20:40:27.000   49.674135196 -125.377267601  1267.5449   2   8   0.1151   0.0899   0.1975   0.0544  -0.0269  -0.0463   0.00    1.0
2021/03/10 20:40:28.000   49.674135153 -125.377267644  1267.5099   2   8   0.1129   0.0882   0.1938   0.0533  -0.0264  -0.0458   0.00    1.0
2021/03/10 20:40:29.000   49.674135142 -125.377267746  1267.4845   2   8   0.1109   0.0867   0.1904   0.0522  -0.0260  -0.0454   0.00    1.0
2021/03/10 20:40:30.000   49.674135031 -125.377267910  1267.4823   2   8   0.1086   0.0851   0.1869   0.0509  -0.0248  -0.0442   0.00    1.0
2021/03/10 20:40:31.000   49.674135084 -125.377267926  1267.4557   2   8   0.1067   0.0837   0.1837   0.0499  -0.0245  -0.0439   0.00    1.0
2021/03/10 20:40:32.000   49.674135046 -125.377267954  1267.4332   2   8   0.1048   0.0824   0.1807   0.0490  -0.0241  -0.0437   0.00    1.0
2021/03/10 20:40:33.000   49.674135025 -125.377268036  1267.4372   2   8   0.1031   0.0811   0.1778   0.0481  -0.0239  -0.0435   0.00    1.0
2021/03/10 20:40:34.000   49.674135068 -125.377268049  1267.4288   2   8   0.1014   0.0799   0.1750   0.0472  -0.0236  -0.0433   0.00    1.0
2021/03/10 20:40:35.000   49.674135085 -125.377268157  1267.4293   2   8   0.0998   0.0788   0.1724   0.0464  -0.0234  -0.0431   0.00    1.0
2021/03/10 20:40:36.000   49.674135176 -125.377268322  1267.4371   2   8   0.0982   0.0777   0.1699   0.0456  -0.0232  -0.0429   0.00    1.0
2021/03/10 20:40:37.000   49.674135125 -125.377268363  1267.4236   2   8   0.0967   0.0766   0.1674   0.0449  -0.0230  -0.0428   0.00    1.0
2021/03/10 20:40:38.000   49.674135198 -125.377268226  1267.4070   2   8   0.0955   0.0757   0.1654   0.0445  -0.0238  -0.0435   0.00    1.0
2021/03/10 20:40:39.000   49.674135170 -125.377268348  1267.3952   2   8   0.0943   0.0749   0.1635   0.0441  -0.0247  -0.0440   0.00    1.0
2021/03/10 20:40:40.000   49.674135257 -125.377268438  1267.3647   2   8   0.0930   0.0739   0.1613   0.0434  -0.0245  -0.0438   0.00    1.0
2021/03/10 20:40:41.000   49.674135108 -125.377268674  1267.3807   2   7   0.0920   0.0733   0.1599   0.0433  -0.0262  -0.0449   0.00    1.0
2021/03/10 20:40:42.000   49.674135143 -125.377268803  1267.3886   2   7   0.0910   0.0726   0.1586   0.0431  -0.0276  -0.0459   0.00    1.0
2021/03/10 20:40:43.000   49.674135115 -125.377268529  1267.3194   2   8   0.0898   0.0717   0.1565   0.0424  -0.0273  -0.0456   0.00    1.0
2021/03/10 20:40:44.000   49.674135132 -125.377268589  1267.3035   2   8   0.0885   0.0708   0.1544   0.0417  -0.0266  -0.0451   0.00    1.0
2021/03/10 20:40:45.000   49.674135040 -125.377268467  1267.2530   2   8   0.0873   0.0700   0.1525   0.0410  -0.0263  -0.0449   0.00    1.0
2021/03/10 20:40:46.000   49.674135082 -125.377268397  1267.2142   2   8   0.0864   0.0694   0.1512   0.0408  -0.0274  -0.0456   0.00    1.0
2021/03/10 20:40:47.000   49.674135060 -125.377268319  1267.1874   2   8   0.0855   0.0687   0.1498   0.0405  -0.0278  -0.0459   0.00    1.0
2021/03/10 20:40:48.000   49.674135069 -125.377268192  1267.1492   2   8   0.0844   0.0680   0.1480   0.0399  -0.0276  -0.0457   0.00    1.0
2021/03/10 20:40:49.000   49.674135065 -125.377268120  1267.1304   2   8   0.0835   0.0674   0.1466   0.0395  -0.0280  -0.0460   0.00    1.0
2021/03/10 20:40:50.000   49.674135052 -125.377268017  1267.1036   2   8   0.0826   0.0668   0.1453   0.0392  -0.0283  -0.0462   0.00    1.0
2021/03/10 20:40:51.000   49.674135064 -125.377267894  1267.0633   2   8   0.0816   0.0661   0.1437   0.0387  -0.0281  -0.0461   0.00    1.0
2021/03/10 20:40:52.000   49.674135047 -125.377267813  1267.0363   2   8   0.0806   0.0654   0.1421   0.0381  -0.0279  -0.0459   0.00    1.0
2021/03/10 20:40:53.000   49.674134997 -125.377267730  1267.0036   2   8   0.0797   0.0648   0.1406   0.0376  -0.0277  -0.0458   0.00    1.0
2021/03/10 20:40:54.000   49.674134919 -125.377267682  1266.9747   2   8   0.0788   0.0641   0.1392   0.0371  -0.0275  -0.0456   0.00    1.0
2021/03/10 20:40:55.000   49.674134955 -125.377267546  1266.9315   2   8   0.0779   0.0635   0.1377   0.0367  -0.0273  -0.0455   0.00    1.0
2021/03/10 20:40:56.000   49.674134866 -125.377267489  1266.9101   2   8   0.0771   0.0629   0.1363   0.0362  -0.0271  -0.0454   0.00    1.0
2021/03/10 20:40:57.000   49.674134869 -125.377267351  1266.8659   2   8   0.0762   0.0623   0.1350   0.0358  -0.0270  -0.0453   0.00    1.0
2021/03/10 20:40:58.000   49.674134891 -125.377267198  1266.8224   2   8   0.0754   0.0618   0.1337   0.0353  -0.0268  -0.0452   0.00    1.0
2021/03/10 20:40:59.000   49.674134867 -125.377267072  1266.7864   2   8   0.0746   0.0612   0.1324   0.0349  -0.0267  -0.0451   0.00    1.0
2021/03/10 20:41:00.000   49.674134886 -125.377266950  1266.7505   2   8   0.0738   0.0607   0.1311   0.0345  -0.0266  -0.0450   0.00    1.0
2021/03/10 20:41:01.000   49.674134824 -125.377266942  1266.7353   2   8   0.0731   0.0603   0.1301   0.0342  -0.0269  -0.0452   0.00    1.0
2021/03/10 20:41:02.000   49.674134766 -125.377266909  1266.7165   2   8   0.0725   0.0598   0.1291   0.0340  -0.0271  -0.0454   0.00    1.0
2021/03/10 20:41:03.000   49.674134754 -125.377266891  1266.6975   2   8   0.0718   0.0594   0.1281   0.0337  -0.0274  -0.0455   0.00    1.0
2021/03/10 20:41:04.000   49.674134646 -125.377266982  1266.6924   2   8   0.0712   0.0590   0.1274   0.0336  -0.0280  -0.0460   0.00    1.0
2021/03/10 20:41:05.000   49.674134515 -125.377267075  1266.6994   2   8   0.0707   0.0587   0.1267   0.0335  -0.0285  -0.0464   0.00    1.0
2021/03/10 20:41:06.000   49.674134422 -125.377267130  1266.6965   2   8   0.0702   0.0583   0.1260   0.0334  -0.0290  -0.0468   0.00    1.0
2021/03/10 20:41:07.000   49.674134301 -125.377267202  1266.6891   2   8   0.0696   0.0580   0.1252   0.0333  -0.0295  -0.0471   0.00    1.0
2021/03/10 20:41:08.000   49.674134142 -125.377267243  1266.6864   2   8   0.0691   0.0577   0.1246   0.0332  -0.0300  -0.0475   0.00    1.0
2021/03/10 20:41:09.000   49.674134030 -125.377267319  1266.6891   2   8   0.0686   0.0574   0.1239   0.0331  -0.0304  -0.0478   0.00    1.0
2021/03/10 20:41:10.000   49.674133921 -125.377267360  1266.6804   2   8   0.0681   0.0571   0.1232   0.0330  -0.0309  -0.0481   0.00    1.0
2021/03/10 20:41:11.000   49.674133797 -125.377267439  1266.6851   2   8   0.0676   0.0567   0.1226   0.0329  -0.0312  -0.0484   0.00    1.0
2021/03/10 20:41:12.000   49.674133681 -125.377267557  1266.6782   2   8   0.0671   0.0564   0.1219   0.0328  -0.0316  -0.0487   0.00    1.0
2021/03/10 20:41:13.000   49.674133537 -125.377267638  1266.6662   2   8   0.0667   0.0561   0.1213   0.0327  -0.0320  -0.0490   0.00    1.0
2021/03/10 20:41:14.000   49.674133390 -125.377267727  1266.6667   2   7   0.0662   0.0559   0.1207   0.0326  -0.0323  -0.0493   0.00    1.0
2021/03/10 20:41:15.000   49.674133290 -125.377267964  1266.6646   2   7   0.0658   0.0556   0.1201   0.0325  -0.0326  -0.0495   0.00    1.0
2021/03/10 20:41:16.000   49.674133099 -125.377268192  1266.6753   2   7   0.0653   0.0553   0.1195   0.0324  -0.0329  -0.0497   0.00    1.0
2021/03/10 20:41:17.000   49.674132955 -125.377268230  1266.6789   2   7   0.0649   0.0550   0.1189   0.0323  -0.0332  -0.0500   0.00    1.0
2021/03/10 20:41:18.000   49.674132850 -125.377268310  1266.6729   2   7   0.0644   0.0547   0.1183   0.0322  -0.0335  -0.0502   0.00    1.0
2021/03/10 20:41:19.000   49.674132738 -125.377268411  1266.6682   2   7   0.0640   0.0545   0.1178   0.0321  -0.0337  -0.0504   0.00    1.0
2021/03/10 20:41:20.000   49.674132696 -125.377268394  1266.6456   2   7   0.0632   0.0540   0.1165   0.0314  -0.0330  -0.0497   0.00    1.2
2021/03/10 20:41:21.000   49.674132651 -125.377268404  1266.6321   2   7   0.0626   0.0536   0.1155   0.0310  -0.0327  -0.0494   0.00    1.4
2021/03/10 20:41:22.000   49.674132586 -125.377268434  1266.6059   2   7   0.0621   0.0532   0.1146   0.0307  -0.0324  -0.0491   0.00    1.6
2021/03/10 20:41:23.000   49.674132562 -125.377268452  1266.5848   2   7   0.0615   0.0528   0.1137   0.0304  -0.0322  -0.0489   0.00    1.8
2021/03/10 20:41:24.000   49.674132507 -125.377268498  1266.5635   2   7   0.0610   0.0524   0.1128   0.0301  -0.0320  -0.0487   0.00    2.0
2021/03/10 20:41:25.000   49.674132429 -125.377268562  1266.5433   2   7   0.0605   0.0521   0.1120   0.0298  -0.0318  -0.0485   0.00    2.1
2021/03/10 20:41:26.000   49.674132367 -125.377268610  1266.5236   2   7   0.0600   0.0517   0.1112   0.0295  -0.0316  -0.0483   0.00    2.3
2021/03/10 20:41:27.000   49.674132320 -125.377268610  1266.4969   2   7   0.0595   0.0514   0.1104   0.0292  -0.0314  -0.0481   0.00    2.5
2021/03/10 20:41:28.000   49.674132262 -125.377268619  1266.4786   2   7   0.0590   0.0511   0.1096   0.0289  -0.0312  -0.0480   0.00    2.7
2021/03/10 20:41:29.000   49.674132225 -125.377268615  1266.4564   2   7   0.0585   0.0508   0.1088   0.0286  -0.0311  -0.0478   0.00    2.9
2021/03/10 20:41:30.000   49.674130086 -125.377271419  1265.0581   1   7   0.0061   0.0048   0.0109   0.0027  -0.0016  -0.0009   0.00    3.1
2021/03/10 20:41:31.000   49.674130056 -125.377271445  1265.0624   1   7   0.0061   0.0048   0.0109   0.0027  -0.0016  -0.0009   0.00    3.2
2021/03/10 20:41:32.000   49.674130072 -125.377271397  1265.0588   1   7   0.0061   0.0048   0.0109   0.0027  -0.0016  -0.0009   0.00    3.4
2021/03/10 20:41:33.000   49.674130070 -125.377271439  1265.0615   1   7   0.0061   0.0048   0.0109   0.0027  -0.0016  -0.0009   0.00    3.6
2021/03/10 20:41:34.000   49.674130072 -125.377271460  1265.0567   1   7   0.0061   0.0048   0.0109   0.0027  -0.0016  -0.0009   0.00    3.7
2021/03/10 20:41:35.000   49.674130074 -125.377271436  1265.0518   1   7   0.0061   0.0048   0.0109   0.0027  -0.0016  -0.0009   0.00    3.9
2021/03/10 20:41:36.000   49.674130073 -125.377271418  1265.0515   1   7   0.0061   0.0048   0.0109   0.0027  -0.0016  -0.0009   0.00    4.0
2021/03/10 20:41:37.000   49.674130089 -125.377271434  1265.0529   1   7   0.0061   0.0048   0.0109   0.0027  -0.0016  -0.0009   0.00    4.2
2021/03/10 20:41:38.000   49.674130082 -125.377271422  1265.0542   1   7   0.0061   0.0048   0.0109   0.0027  -0.0016  -0.0009   0.00    4.3
2021/03/10 20:41:39.000   49.674130096 -125.377271400  1265.0527   1   7   0.0061   0.0048   0.0109   0.0027  -0.0016  -0.0009   0.00    4.5
2021/03/10 20:41:40.000   49.674130101 -125.377271438  1265.0535   1   7   0.0061   0.0048   0.0109   0.0027  -0.0016  -0.0009   0.00   11.2
2021/03/10 20:41:41.000   49.674130080 -125.377271448  1265.0556   1   7   0.0061   0.0048   0.0109   0.0027  -0.0016  -0.0009   0.00   15.1
2021/03/10 20:41:42.000   49.674130087 -125.377271437  1265.0552   1   7   0.0061   0.0048   0.0109   0.0027  -0.0016  -0.0009   0.00   19.0
2021/03/10 20:41:43.000   49.674130088 -125.377271454  1265.0570   1   7   0.0061   0.0048   0.0109   0.0027  -0.0016  -0.0009   0.00   22.9
2021/03/10 20:41:44.000   49.674130103 -125.377271429  1265.0578   1   7   0.0061   0.0048   0.0109   0.0027  -0.0016  -0.0009   0.00   26.8
2021/03/10 20:41:45.000   49.674130120 -125.377271430  1265.0515   1   7   0.0061   0.0048   0.0109   0.0027  -0.0016  -0.0009   0.00   30.7
2021/03/10 20:41:46.000   49.674130111 -125.377271439  1265.0542   1   7   0.0061   0.0048   0.0109   0.0027  -0.0016  -0.0009   0.00   34.6
2021/03/10 20:41:47.000   49.674130112 -125.377271431  1265.0529   1   7   0.0061   0.0048   0.0109   0.0027  -0.0016  -0.0009   0.00   38.5
2021/03/10 20:41:48.000   49.674130091 -125.377271443  1265.0567   1   7   0.0061   0.0048   0.0109   0.0027  -0.0016  -0.0009   0.00   42.3
2021/03/10 20:41:49.000   49.674130073 -125.377271481  1265.0620   1   7   0.0061   0.0048   0.0109   0.0027  -0.0016  -0.0009   0.00   46.2
2021/03/10 20:41:50.000   49.674130067 -125.377271476  1265.0573   1   7   0.0061   0.0048   0.0109   0.0027  -0.0016  -0.0009   0.00   49.8
2021/03/10 20:41:51.000   49.674130069 -125.377271487  1265.0594   1   7   0.0061   0.0048   0.0109   0.0027  -0.0016  -0.0009   0.00   53.4
2021/03/10 20:41:52.000   49.674130086 -125.377271438  1265.0600   1   7   0.0061   0.0048   0.0109   0.0027  -0.0016  -0.0009   0.00   56.7
2021/03/10 20:41:53.000   49.674130067 -125.377271482  1265.0614   1   7   0.0061   0.0048   0.0109   0.0027  -0.0016  -0.0009   0.00   60.0
2021/03/10 20:41:54.000   49.674130078 -125.377271485  1265.0551   1   7   0.0061   0.0048   0.0109   0.0027  -0.0016  -0.0009   0.00   63.3
2021/03/10 20:41:55.000   49.674130092 -125.377271463  1265.0550   1   7   0.0061   0.0048   0.0109   0.0027  -0.0016  -0.0009   0.00   66.7
2021/03/10 20:41:56.000   49.674130095 -125.377271441  1265.0531   1   7   0.0061   0.0048   0.0109   0.0027  -0.0016  -0.0009   0.00   69.8
2021/03/10 20:41:57.000   49.674130111 -125.377271460  1265.0512   1   7   0.0061   0.0048   0.0109   0.0027  -0.0016  -0.0009   0.00   72.9
2021/03/10 20:41:58.000   49.674130115 -125.377271467  1265.0500   1   7   0.0061   0.0048   0.0109   0.0027  -0.0016  -0.0009   0.00   75.8
2021/03/10 20:41:59.000   49.674130119 -125.377271455  1265.0501   1   7   0.0061   0.0048   0.0109   0.0027  -0.0016  -0.0009   0.00   78.8
2021/03/10 20:42:00.000   49.674130138 -125.377271440  1265.0489   1   7   0.0061   0.0048   0.0109   0.0027  -0.0016  -0.0009   0.00   81.8
2021/03/10 20:42:01.000   49.674130095 -125.377271468  1265.0580   1   7   0.0061   0.0048   0.0109   0.0027  -0.0016  -0.0009   0.00   84.9
2021/03/10 20:42:02.000   49.674130099 -125.377271443  1265.0579   1   7   0.0061   0.0048   0.0109   0.0027  -0.0016  -0.0009   0.00   87.9
2021/03/10 20:42:03.000   49.674130123 -125.377271410  1265.0520   1   7   0.0061   0.0048   0.0109   0.0027  -0.0016  -0.0009   0.00   90.6
2021/03/10 20:42:04.000   49.674130114 -125.377271420  1265.0532   1   7   0.0061   0.0048   0.0109   0.0027  -0.0016  -0.0009   0.00   93.4
2021/03/10 20:42:05.000   49.674130092 -125.377271452  1265.0554   1   7   0.0061   0.0048   0.0109   0.0027  -0.0016  -0.0009   0.00   96.1
2021/03/10 20:42:06.000   49.674130127 -125.377271436  1265.0531   1   7   0.0061   0.0048   0.0109   0.0027  -0.0016  -0.0009   0.00   98.5
2021/03/10 20:42:07.000   49.674130129 -125.377271441  1265.0476   1   7   0.0061   0.0048   0.0109   0.0027  -0.0016  -0.0009   0.00  100.9
2021/03/10 20:42:08.000   49.674130119 -125.377271465  1265.0511   1   7   0.0061   0.0048   0.0109   0.0027  -0.0016  -0.0009   0.00  103.4
2021/03/10 20:42:09.000   49.674130098 -125.377271462  1265.0502   1   7   0.0061   0.0048   0.0109   0.0027  -0.0016  -0.0009   0.00  105.9
2021/03/10 20:42:10.000   49.674130085 -125.377271490  1265.0589   1   7   0.0061   0.0048   0.0109   0.0027  -0.0016  -0.0009   0.00  108.5
2021/03/10 20:42:11.000   49.674130095 -125.377271492  1265.0568   1   7   0.0061   0.0048   0.0109   0.0027  -0.0016  -0.0009   0.00  110.8
2021/03/10 20:42:12.000   49.674130099 -125.377271474  1265.0543   1   7   0.0061   0.0048   0.0109   0.0027  -0.0016  -0.0009   0.00  113.2
2021/03/10 20:42:13.000   49.674130058 -125.377271486  1265.0595   1   7   0.0061   0.0048   0.0109   0.0027  -0.0016  -0.0008   0.00  115.5
2021/03/10 20:42:14.000   49.674130081 -125.377271466  1265.0546   1   7   0.0061   0.0048   0.0109   0.0027  -0.0016  -0.0009   0.00  117.7
2021/03/10 20:42:15.000   49.674130091 -125.377271450  1265.0561   1   7   0.0061   0.0048   0.0109   0.0027  -0.0016  -0.0009   0.00  119.8
2021/03/10 20:42:16.000   49.674130111 -125.377271464  1265.0552   1   7   0.0061   0.0048   0.0109   0.0027  -0.0016  -0.0009   0.00  121.9
2021/03/10 20:42:17.000   49.674130103 -125.377271456  1265.0511   1   7   0.0061   0.0048   0.0109   0.0027  -0.0016  -0.0009   0.00  124.0
2021/03/10 20:42:18.000   49.674130118 -125.377271452  1265.0435   1   7   0.0061   0.0048   0.0109   0.0027  -0.0016  -0.0009   0.00  126.2
2021/03/10 20:42:19.000   49.674130103 -125.377271465  1265.0482   1   7   0.0061   0.0048   0.0109   0.0027  -0.0016  -0.0009   0.00  128.5
2021/03/10 20:42:20.000   49.674130118 -125.377271459  1265.0462   1   7   0.0061   0.0048   0.0109   0.0027  -0.0016  -0.0009   0.00  130.7
2021/03/10 20:42:21.000   49.674130097 -125.377271464  1265.0477   1   7   0.0061   0.0048   0.0110   0.0027  -0.0016  -0.0009   0.00  132.9
2021/03/10 20:42:22.000   49.674130093 -125.377271466  1265.0549   1   7   0.0061   0.0048   0.0110   0.0027  -0.0016  -0.0008   0.00  134.9
2021/03/10 20:42:23.000   49.674130092 -125.377271482  1265.0494   1   7   0.0061   0.0048   0.0110   0.0027  -0.0016  -0.0008   0.00  136.8
2021/03/10 20:42:24.000   49.674130098 -125.377271504  1265.0534   1   7   0.0061   0.0048   0.0110   0.0027  -0.0016  -0.0008   0.00  138.9
2021/03/10 20:42:25.000   49.674130090 -125.377271476  1265.0480   1   7   0.0061   0.0048   0.0110   0.0027  -0.0016  -0.0009   0.00  140.9
2021/03/10 20:42:26.000   49.674130089 -125.377271489  1265.0496   1   7   0.0061   0.0048   0.0110   0.0027  -0.0016  -0.0008   0.00  142.9
2021/03/10 20:42:27.000   49.674130097 -125.377271469  1265.0508   1   7   0.0061   0.0048   0.0110   0.0027  -0.0016  -0.0008   0.00  144.6
2021/03/10 20:42:28.000   49.674130083 -125.377271480  1265.0483   1   7   0.0061   0.0048   0.0110   0.0027  -0.0016  -0.0009   0.00  146.3
2021/03/10 20:42:29.000   49.674130099 -125.377271471  1265.0463   1   7   0.0061   0.0048   0.0110   0.0027  -0.0016  -0.0008   0.00  147.9
2021/03/10 20:42:30.000   49.674130102 -125.377271478  1265.0474   1   7   0.0061   0.0048   0.0110   0.0027  -0.0016  -0.0008   0.00  149.3
2021/03/10 20:42:31.000   49.674130098 -125.377271467  1265.0462   1   7   0.0061   0.0048   0.0110   0.0027  -0.0016  -0.0008   0.00  150.8
2021/03/10 20:42:32.000   49.674130094 -125.377271471  1265.0492   1   7   0.0061   0.0048   0.0110   0.0027  -0.0016  -0.0008   0.00  152.2
2021/03/10 20:42:33.000   49.674130083 -125.377271470  1265.0506   1   7   0.0061   0.0048   0.0110   0.0027  -0.0016  -0.0008   0.00  153.7
2021/03/10 20:42:34.000   49.674130107 -125.377271474  1265.0469   1   7   0.0061   0.0048   0.0110   0.0027  -0.0016  -0.0008   0.00  155.0
2021/03/10 20:42:35.000   49.674130107 -125.377271465  1265.0484   1   7   0.0061   0.0048   0.0110   0.0027  -0.0016  -0.0008   0.00  156.2
2021/03/10 20:42:36.000   49.674130123 -125.377271463  1265.0444   1   7   0.0061   0.0048   0.0110   0.0027  -0.0016  -0.0008   0.00  157.5
2021/03/10 20:42:37.000   49.674130135 -125.377271477  1265.0466   1   7   0.0061   0.0048   0.0110   0.0027  -0.0017  -0.0008   0.00  158.8
2021/03/10 20:42:38.000   49.674130092 -125.377271465  1265.0450   1   7   0.0061   0.0048   0.0110   0.0027  -0.0016  -0.0008   0.00  159.9
2021/03/10 20:42:39.000   49.674130099 -125.377271466  1265.0497   1   7   0.0061   0.0048   0.0110   0.0027  -0.0017  -0.0008   0.00  161.0
2021/03/10 20:42:40.000   49.674130110 -125.377271452  1265.0491   1   7   0.0061   0.0048   0.0110   0.0027  -0.0017  -0.0008   0.00  162.0
2021/03/10 20:42:41.000   49.674130109 -125.377271457  1265.0494   1   7   0.0061   0.0048   0.0110   0.0027  -0.0017  -0.0008   0.00  163.3
2021/03/10 20:42:42.000   49.674130097 -125.377271446  1265.0490   1   7   0.0061   0.0048   0.0110   0.0027  -0.0016  -0.0008   0.00  164.5
2021/03/10 20:42:43.000   49.674130090 -125.377271473  1265.0476   1   7   0.0061   0.0048   0.0110   0.0027  -0.0017  -0.0008   0.00  165.7
2021/03/10 20:42:44.000   49.674130094 -125.377271473  1265.0496   1   7   0.0061   0.0048   0.0110   0.0027  -0.0016  -0.0008   0.00  167.1
2021/03/10 20:42:45.000   49.674130108 -125.377271498  1265.0493   1   7   0.0061   0.0048   0.0110   0.0027  -0.0017  -0.0008   0.00  168.5
2021/03/10 20:42:46.000   49.674130100 -125.377271498  1265.0551   1   7   0.0061   0.0048   0.0110   0.0027  -0.0016  -0.0008   0.00  169.6
2021/03/10 20:42:47.000   49.674130102 -125.377271441  1265.0525   1   7   0.0061   0.0048   0.0110   0.0027  -0.0017  -0.0008   0.00  170.4
2021/03/10 20:42:48.000   49.674130117 -125.377271442  1265.0539   1   7   0.0061   0.0048   0.0110   0.0027  -0.0016  -0.0008   0.00  171.6
2021/03/10 20:42:49.000   49.674130118 -125.377271452  1265.0523   1   7   0.0061   0.0048   0.0110   0.0026  -0.0017  -0.0008   0.00  173.0
2021/03/10 20:42:50.000   49.674130114 -125.377271495  1265.0487   1   7   0.0061   0.0048   0.0110   0.0026  -0.0017  -0.0008   0.00  174.7
2021/03/10 20:42:51.000   49.674130146 -125.377271447  1265.0471   1   7   0.0061   0.0047   0.0110   0.0026  -0.0017  -0.0008   0.00  176.4
2021/03/10 20:42:52.000   49.674130165 -125.377271461  1265.0505   1   7   0.0061   0.0048   0.0110   0.0026  -0.0017  -0.0008   0.00  177.4
2021/03/10 20:42:53.000   49.674130144 -125.377271460  1265.0432   1   7   0.0061   0.0047   0.0110   0.0026  -0.0017  -0.0008   0.00  178.4
2021/03/10 20:42:54.000   49.674130131 -125.377271471  1265.0472   1   7   0.0061   0.0047   0.0110   0.0026  -0.0017  -0.0008   0.00  179.7
2021/03/10 20:42:55.000   49.674130099 -125.377271481  1265.0516   1   7   0.0061   0.0047   0.0110   0.0026  -0.0017  -0.0008   0.00  180.8
2021/03/10 20:42:56.000   49.674130041 -125.377271469  1265.0444   1   7   0.0101   0.0048   0.0123   0.0034   0.0005   0.0066   0.00  181.8
2021/03/10 20:42:57.000   49.674130059 -125.377271450  1265.0432   1   7   0.0101   0.0048   0.0123   0.0034   0.0005   0.0066   0.00  182.8
2021/03/10 20:42:58.000   49.674130106 -125.377271465  1265.0546   1   7   0.0061   0.0048   0.0110   0.0026  -0.0017  -0.0008   0.00  184.0
2021/03/10 20:42:59.000   49.674130121 -125.377271450  1265.0490   1   7   0.0061   0.0047   0.0110   0.0026  -0.0017  -0.0008   0.00  185.0
2021/03/10 20:43:00.000   49.674130119 -125.377271456  1265.0519   1   7   0.0061   0.0047   0.0110   0.0026  -0.0017  -0.0008   0.00  186.2
2021/03/10 20:43:01.000   49.674130131 -125.377271470  1265.0509   1   7   0.0061   0.0048   0.0110   0.0026  -0.0017  -0.0008   0.00  187.5
2021/03/10 20:43:02.000   49.674130114 -125.377271457  1265.0548   1   7   0.0061   0.0047   0.0110   0.0026  -0.0017  -0.0008   0.00  188.7
2021/03/10 20:43:03.000   49.674130128 -125.377271482  1265.0498   1   7   0.0061   0.0047   0.0110   0.0026  -0.0017  -0.0008   0.00  189.4
2021/03/10 20:43:04.000   49.674130099 -125.377271477  1265.0458   1   7   0.0061   0.0047   0.0110   0.0026  -0.0017  -0.0008   0.00  190.5
2021/03/10 20:43:05.000   49.674130124 -125.377271420  1265.0494   1   7   0.0061   0.0047   0.0110   0.0026  -0.0017  -0.0008   0.00  191.7
2021/03/10 20:43:06.000   49.674130110 -125.377271435  1265.0451   1   7   0.0061   0.0047   0.0110   0.0026  -0.0017  -0.0008   0.00  192.2
2021/03/10 20:43:07.000   49.674130074 -125.377271463  1265.0544   1   7   0.0061   0.0047   0.0110   0.0026  -0.0017  -0.0008   0.00  193.1
2021/03/10 20:43:08.000   49.674130084 -125.377271463  1265.0511   1   7   0.0061   0.0047   0.0110   0.0026  -0.0017  -0.0008   0.00  194.2
2021/03/10 20:43:09.000   49.674130082 -125.377271440  1265.0471   1   7   0.0061   0.0047   0.0110   0.0026  -0.0017  -0.0008   0.00  195.0
2021/03/10 20:43:10.000   49.674130089 -125.377271441  1265.0560   1   7   0.0061   0.0047   0.0110   0.0026  -0.0017  -0.0008   0.00  196.0
2021/03/10 20:43:11.000   49.674130074 -125.377271454  1265.0470   1   7   0.0061   0.0047   0.0110   0.0026  -0.0017  -0.0008   0.00  197.0
2021/03/10 20:43:12.000   49.674130083 -125.377271430  1265.0416   1   7   0.0061   0.0047   0.0110   0.0026  -0.0017  -0.0008   0.00  197.8
2021/03/10 20:43:13.000   49.674130081 -125.377271466  1265.0526   1   7   0.0061   0.0047   0.0110   0.0026  -0.0017  -0.0008   0.00  198.8
2021/03/10 20:43:14.000   49.674130102 -125.377271472  1265.0526   1   7   0.0061   0.0047   0.0110   0.0026  -0.0017  -0.0008   0.00  199.8
2021/03/10 20:43:15.000   49.674130057 -125.377271469  1265.0494   1   7   0.0061   0.0047   0.0110   0.0026  -0.0017  -0.0008   0.00  201.1
2021/03/10 20:43:16.000   49.674130104 -125.377271407  1265.0414   1   7   0.0061   0.0047   0.0110   0.0026  -0.0017  -0.0008   0.00  201.9
2021/03/10 20:43:17.000   49.674130089 -125.377271436  1265.0522   1   7   0.0061   0.0047   0.0110   0.0026  -0.0017  -0.0008   0.00  203.0
2021/03/10 20:43:18.000   49.674130081 -125.377271451  1265.0491   1   7   0.0061   0.0047   0.0110   0.0026  -0.0017  -0.0008   0.00  204.0
2021/03/10 20:43:19.000   49.674130111 -125.377271444  1265.0454   1   7   0.0061   0.0047   0.0110   0.0026  -0.0017  -0.0008   0.00  205.2
2021/03/10 20:43:20.000   49.674130096 -125.377271421  1265.0498   1   7   0.0061   0.0047   0.0110   0.0026  -0.0017  -0.0008   0.00  206.1
2021/03/10 20:43:21.000   49.674130110 -125.377271432  1265.0460   1   7   0.0061   0.0047   0.0110   0.0026  -0.0017  -0.0008   0.00  206.7
2021/03/10 20:43:22.000   49.674130081 -125.377271443  1265.0486   1   7   0.0061   0.0047   0.0110   0.0026  -0.0017  -0.0008   0.00  207.5
2021/03/10 20:43:23.000   49.674130097 -125.377271417  1265.0425   1   7   0.0061   0.0047   0.0110   0.0026  -0.0017  -0.0008   0.00  208.4
2021/03/10 20:43:24.000   49.674130093 -125.377271435  1265.0464   1   7   0.0061   0.0047   0.0110   0.0026  -0.0017  -0.0008   0.00  209.6
2021/03/10 20:43:25.000   49.674130077 -125.377271432  1265.0507   1   7   0.0061   0.0047   0.0110   0.0026  -0.0017  -0.0008   0.00  210.5
2021/03/10 20:43:26.000   49.674130093 -125.377271433  1265.0529   1   7   0.0061   0.0047   0.0110   0.0026  -0.0017  -0.0008   0.00  211.6
2021/03/10 20:43:27.000   49.674130088 -125.377271416  1265.0465   1   7   0.0061   0.0047   0.0110   0.0026  -0.0017  -0.0008   0.00  212.6
2021/03/10 20:43:28.000   49.674130101 -125.377271430  1265.0434   1   7   0.0061   0.0047   0.0110   0.0026  -0.0017  -0.0008   0.00  213.8
2021/03/10 20:43:29.000   49.674130095 -125.377271385  1265.0508   1   7   0.0061   0.0047   0.0110   0.0026  -0.0017  -0.0008   0.00  214.8
2021/03/10 20:43:30.000   49.674130106 -125.377271441  1265.0481   1   7   0.0061   0.0047   0.0110   0.0026  -0.0017  -0.0008   0.00  216.0
2021/03/10 20:43:31.000   49.674130135 -125.377271403  1265.0423   1   7   0.0061   0.0047   0.0110   0.0026  -0.0017  -0.0008   0.00  217.3
2021/03/10 20:43:32.000   49.674130115 -125.377271418  1265.0456   1   7   0.0061   0.0047   0.0110   0.0026  -0.0017  -0.0008   0.00  218.4
2021/03/10 20:43:33.000   49.674130118 -125.377271399  1265.0481   1   7   0.0061   0.0047   0.0110   0.0026  -0.0017  -0.0008   0.00  219.5
2021/03/10 20:43:34.000   49.674130112 -125.377271427  1265.0458   1   7   0.0061   0.0047   0.0110   0.0026  -0.0017  -0.0008   0.00  220.7
2021/03/10 20:43:35.000   49.674130081 -125.377271370  1265.0494   1   7   0.0061   0.0047   0.0110   0.0026  -0.0017  -0.0008   0.00  221.6
2021/03/10 20:43:36.000   49.674130120 -125.377271385  1265.0457   1   7   0.0061   0.0047   0.0110   0.0026  -0.0017  -0.0008   0.00  222.7
2021/03/10 20:43:37.000   49.674130110 -125.377271390  1265.0453   1   7   0.0061   0.0047   0.0110   0.0026  -0.0017  -0.0008   0.00  223.4
2021/03/10 20:43:38.000   49.674130113 -125.377271367  1265.0353   1   7   0.0061   0.0047   0.0110   0.0026  -0.0017  -0.0008   0.00  224.3
2021/03/10 20:43:39.000   49.674130126 -125.377271348  1265.0426   1   7   0.0061   0.0047   0.0110   0.0026  -0.0017  -0.0008   0.00  225.2
2021/03/10 20:43:40.000   49.674130101 -125.377271404  1265.0475   1   7   0.0061   0.0047   0.0110   0.0026  -0.0017  -0.0008   0.00  226.0
2021/03/10 20:43:41.000   49.674130081 -125.377271415  1265.0477   1   7   0.0061   0.0047   0.0110   0.0026  -0.0017  -0.0008   0.00  226.8
2021/03/10 20:43:42.000   49.674130061 -125.377271381  1265.0388   1   7   0.0099   0.0048   0.0122   0.0033  -0.0005   0.0064   0.00  227.9
2021/03/10 20:43:43.000   49.674130023 -125.377271360  1265.0296   1   7   0.0099   0.0048   0.0122   0.0032  -0.0006   0.0064   0.00  228.6
2021/03/10 20:43:44.000   49.674130027 -125.377271385  1265.0260   1   7   0.0099   0.0048   0.0122   0.0032  -0.0006   0.0064   0.00  229.3
2021/03/10 20:43:45.000   49.674130120 -125.377271333  1265.0469   1   7   0.0061   0.0047   0.0110   0.0026  -0.0017  -0.0008   0.00  229.9
2021/03/10 20:43:46.000   49.674130127 -125.377271353  1265.0377   1   7   0.0061   0.0047   0.0110   0.0026  -0.0017  -0.0008   0.00  230.4
2021/03/10 20:43:47.000   49.674130146 -125.377271387  1265.0438   1   7   0.0061   0.0047   0.0110   0.0026  -0.0017  -0.0008   0.00  230.4
2021/03/10 20:43:48.000   49.674130130 -125.377271406  1265.0421   1   7   0.0061   0.0047   0.0110   0.0026  -0.0017  -0.0008   0.00  231.4
2021/03/10 20:43:49.000   49.674130161 -125.377271416  1265.0407   1   7   0.0061   0.0047   0.0110   0.0026  -0.0017  -0.0008   0.00  233.1
2021/03/10 20:43:50.000   49.674130174 -125.377271359  1265.0311   1   7   0.0061   0.0047   0.0110   0.0026  -0.0017  -0.0008   0.00  235.1
2021/03/10 20:43:51.000   49.674130186 -125.377271397  1265.0333   1   7   0.0061   0.0047   0.0110   0.0026  -0.0017  -0.0008   0.00  236.6
2021/03/10 20:43:52.000   49.674130154 -125.377271411  1265.0374   1   7   0.0061   0.0047   0.0110   0.0026  -0.0017  -0.0008   0.00  238.2
2021/03/10 20:43:53.000   49.674130242 -125.377271427  1265.0399   1   7   0.0061   0.0047   0.0110   0.0026  -0.0017  -0.0008   0.00  239.7
2021/03/10 20:43:54.000   49.674130173 -125.377271423  1265.0348   1   7   0.0061   0.0047   0.0110   0.0026  -0.0017  -0.0008   0.00  241.7
2021/03/10 20:43:55.000   49.674130153 -125.377271356  1265.0287   1   7   0.0061   0.0047   0.0111   0.0026  -0.0017  -0.0008   0.00  243.8
2021/03/10 20:43:56.000   49.674130178 -125.377271350  1265.0260   1   7   0.0061   0.0047   0.0111   0.0026  -0.0017  -0.0008   0.00  245.8
2021/03/10 20:43:57.000   49.674130209 -125.377271326  1265.0290   1   7   0.0061   0.0047   0.0111   0.0026  -0.0017  -0.0008   0.00  247.6
2021/03/10 20:43:58.000   49.674130156 -125.377271374  1265.0372   1   7   0.0061   0.0047   0.0111   0.0026  -0.0017  -0.0008   0.00  249.5
2021/03/10 20:43:59.000   49.674130185 -125.377271357  1265.0335   1   7   0.0061   0.0047   0.0111   0.0026  -0.0017  -0.0008   0.00  251.2
2021/03/10 20:44:00.000   49.674130141 -125.377271386  1265.0342   1   7   0.0061   0.0047   0.0111   0.0026  -0.0017  -0.0008   0.00  253.2
2021/03/10 20:44:01.000   49.674130172 -125.377271442  1265.0384   1   7   0.0061   0.0047   0.0111   0.0026  -0.0017  -0.0008   0.00  255.5
2021/03/10 20:44:02.000   49.674130221 -125.377271376  1265.0249   1   7   0.0061   0.0047   0.0111   0.0026  -0.0017  -0.0008   0.00  257.3
2021/03/10 20:44:03.000   49.674130179 -125.377271374  1265.0302   1   7   0.0061   0.0047   0.0111   0.0026  -0.0017  -0.0008   0.00  259.4
2021/03/10 20:44:04.000   49.674130151 -125.377271379  1265.0309   1   7   0.0061   0.0047   0.0111   0.0026  -0.0017  -0.0008   0.00  261.6
2021/03/10 20:44:05.000   49.674130161 -125.377271384  1265.0318   1   7   0.0061   0.0047   0.0111   0.0026  -0.0017  -0.0008   0.00  264.0
2021/03/10 20:44:06.000   49.674130171 -125.377271405  1265.0243   1   7   0.0061   0.0047   0.0111   0.0026  -0.0017  -0.0008   0.00  266.5
2021/03/10 20:44:07.000   49.674130180 -125.377271435  1265.0257   1   7   0.0061   0.0047   0.0111   0.0026  -0.0017  -0.0008   0.00  269.2
2021/03/10 20:44:08.000   49.674130195 -125.377271402  1265.0253   1   7   0.0061   0.0047   0.0111   0.0026  -0.0017  -0.0008   0.00  271.7
2021/03/10 20:44:09.000   49.674130175 -125.377271464  1265.0236   1   7   0.0061   0.0047   0.0111   0.0026  -0.0017  -0.0008   0.00  274.6
2021/03/10 20:44:10.000   49.674130140 -125.377271490  1265.0388   1   7   0.0061   0.0047   0.0111   0.0026  -0.0017  -0.0008   0.00  277.7
2021/03/10 20:44:11.000   49.674130176 -125.377271429  1265.0270   1   7   0.0061   0.0047   0.0111   0.0026  -0.0017  -0.0008   0.00  280.5
2021/03/10 20:44:12.000   49.674130145 -125.377271445  1265.0253   1   7   0.0060   0.0047   0.0111   0.0026  -0.0017  -0.0008   0.00  283.7
2021/03/10 20:44:13.000   49.674130175 -125.377271422  1265.0254   1   7   0.0061   0.0047   0.0111   0.0026  -0.0017  -0.0008   0.00  286.9
2021/03/10 20:44:14.000   49.674130154 -125.377271402  1265.0285   1   7   0.0061   0.0047   0.0111   0.0026  -0.0017  -0.0008   0.00  289.7
2021/03/10 20:44:15.000   49.674130170 -125.377271415  1265.0262   1   7   0.0061   0.0047   0.0111   0.0026  -0.0017  -0.0008   0.00  293.1
2021/03/10 20:44:16.000   49.674130176 -125.377271402  1265.0256   1   7   0.0061   0.0047   0.0111   0.0025  -0.0017  -0.0008   0.00  296.8
2021/03/10 20:44:17.000   49.674130159 -125.377271412  1265.0263   1   7   0.0061   0.0047   0.0111   0.0025  -0.0017  -0.0008   0.00  300.4
2021/03/10 20:44:18.000   49.674130184 -125.377271397  1265.0226   1   7   0.0060   0.0047   0.0111   0.0026  -0.0017  -0.0008   0.00  303.4
2021/03/10 20:44:19.000   49.674130180 -125.377271376  1265.0248   1   7   0.0060   0.0047   0.0111   0.0026  -0.0017  -0.0008   0.00  306.4
2021/03/10 20:44:20.000   49.674130139 -125.377271376  1265.0317   1   7   0.0060   0.0047   0.0111   0.0025  -0.0017  -0.0008   0.00  309.5
2021/03/10 20:44:21.000   49.674130188 -125.377271368  1265.0376   1   7   0.0060   0.0047   0.0111   0.0025  -0.0017  -0.0008   0.00  311.3
2021/03/10 20:44:22.000   49.674130179 -125.377271373  1265.0370   1   7   0.0060   0.0047   0.0111   0.0026  -0.0017  -0.0008   0.00  313.1
2021/03/10 20:44:23.000   49.674130145 -125.377271388  1265.0348   1   7   0.0060   0.0047   0.0111   0.0025  -0.0017  -0.0008   0.00  315.8
2021/03/10 20:44:24.000   49.674130186 -125.377271441  1265.0220   1   7   0.0060   0.0047   0.0111   0.0025  -0.0017  -0.0008   0.00  321.4
2021/03/10 20:44:25.000   49.674130209 -125.377271478  1265.0179   1   7   0.0060   0.0047   0.0111   0.0025  -0.0017  -0.0008   0.00  327.8
2021/03/10 20:44:26.000   49.674130172 -125.377271444  1265.0158   1   7   0.0060   0.0047   0.0111   0.0025  -0.0017  -0.0008   0.00  334.1
2021/03/10 20:44:27.000   49.674130195 -125.377271449  1265.0146   1   7   0.0060   0.0047   0.0111   0.0025  -0.0017  -0.0008   0.00  340.3
2021/03/10 20:44:28.000   49.674130173 -125.377271442  1265.0182   1   7   0.0060   0.0047   0.0111   0.0025  -0.0017  -0.0008   0.00  346.5
2021/03/10 20:44:29.000   49.674130201 -125.377271430  1265.0146   1   7   0.0060   0.0047   0.0111   0.0025  -0.0017  -0.0008   0.00  352.7
2021/03/10 20:44:30.000   49.674130232 -125.377271438  1265.0129   1   7   0.0060   0.0047   0.0111   0.0025  -0.0017  -0.0008   0.00  359.6
2021/03/10 20:44:31.000   49.674130236 -125.377271467  1265.0130   1   7   0.0060   0.0047   0.0111   0.0025  -0.0017  -0.0008   0.00  367.2
2021/03/10 20:44:32.000   49.674130213 -125.377271449  1265.0132   1   7   0.0060   0.0047   0.0111   0.0025  -0.0017  -0.0008   0.00  374.9
2021/03/10 20:44:33.000   49.674130224 -125.377271462  1265.0121   1   7   0.0060   0.0047   0.0111   0.0025  -0.0017  -0.0008   0.00  382.5
2021/03/10 20:44:34.000   49.674130218 -125.377271453  1265.0234   1   7   0.0060   0.0047   0.0111   0.0025  -0.0017  -0.0008   0.00  389.5
2021/03/10 20:44:35.000   49.674130202 -125.377271456  1265.0202   1   7   0.0060   0.0047   0.0111   0.0025  -0.0017  -0.0008   0.00  395.4
2021/03/10 20:44:36.000   49.674130207 -125.377271410  1265.0240   1   7   0.0060   0.0047   0.0111   0.0025  -0.0017  -0.0008   0.00  401.1
2021/03/10 20:44:37.001   49.674130188 -125.377271445  1265.0125   1   7   0.0060   0.0047   0.0111   0.0025  -0.0017  -0.0008   0.00  407.4
2021/03/10 20:44:38.000   49.674130161 -125.377271430  1265.0097   1   7   0.0060   0.0047   0.0111   0.0025  -0.0017  -0.0007   0.00  414.0
2021/03/10 20:44:39.000   49.674130232 -125.377271383  1265.0153   1   7   0.0060   0.0047   0.0111   0.0025  -0.0017  -0.0008   0.00  419.3
2021/03/10 20:44:40.000   49.674130182 -125.377271468  1265.0298   1   7   0.0060   0.0047   0.0111   0.0025  -0.0017  -0.0008   0.00  426.7
2021/03/10 20:44:41.000   49.674130202 -125.377271430  1265.0169   1   7   0.0060   0.0047   0.0111   0.0025  -0.0017  -0.0007   0.00  434.1
2021/03/10 20:44:42.000   49.674130226 -125.377271454  1265.0172   1   7   0.0060   0.0047   0.0111   0.0025  -0.0017  -0.0007   0.00  441.5
2021/03/10 20:44:43.000   49.674130219 -125.377271414  1265.0241   1   7   0.0060   0.0047   0.0111   0.0025  -0.0017  -0.0007   0.00  447.3
2021/03/10 20:44:44.000   49.674130200 -125.377271407  1265.0153   1   7   0.0060   0.0047   0.0111   0.0025  -0.0017  -0.0007   0.00  454.2
2021/03/10 20:44:45.000   49.674130167 -125.377271400  1265.0116   1   7   0.0060   0.0047   0.0111   0.0025  -0.0017  -0.0008   0.00  462.1
2021/03/10 20:44:46.000   49.674130279 -125.377271382  1265.0227   1   7   0.0060   0.0047   0.0111   0.0025  -0.0017  -0.0008   0.00  469.3
2021/03/10 20:44:47.000   49.674130260 -125.377271422  1265.0169   1   7   0.0060   0.0047   0.0111   0.0025  -0.0017  -0.0007   0.00  476.6
2021/03/10 20:44:48.000   49.674130209 -125.377271426  1265.0114   1   7   0.0060   0.0047   0.0111   0.0025  -0.0018  -0.0008   0.00  484.3
2021/03/10 20:44:49.000   49.674130224 -125.377271425  1265.0186   1   7   0.0060   0.0047   0.0111   0.0025  -0.0017  -0.0007   0.00  491.8
2021/03/10 20:44:50.000   49.674130230 -125.377271392  1265.0245   1   7   0.0060   0.0047   0.0111   0.0025  -0.0017  -0.0007   0.00  498.7
2021/03/10 20:44:51.000   49.674130233 -125.377271432  1265.0230   1   7   0.0060   0.0047   0.0111   0.0025  -0.0017  -0.0007   0.00  505.8
2021/03/10 20:44:52.000   49.674130193 -125.377271421  1265.0231   1   7   0.0060   0.0047   0.0111   0.0025  -0.0017  -0.0007   0.00  514.6
2021/03/10 20:44:53.000   49.674130144 -125.377271484  1265.0278   1   7   0.0060   0.0047   0.0111   0.0025  -0.0017  -0.0007   0.00  523.8
2021/03/10 20:44:54.000   49.674130187 -125.377271448  1265.0184   1   7   0.0060   0.0047   0.0111   0.0025  -0.0017  -0.0007   0.00  533.9
2021/03/10 20:44:55.000   49.674130196 -125.377271429  1265.0168   1   7   0.0060   0.0047   0.0111   0.0025  -0.0017  -0.0007   0.00  543.9
2021/03/10 20:44:56.000   49.674130187 -125.377271432  1265.0230   1   7   0.0060   0.0047   0.0111   0.0025  -0.0017  -0.0007   0.00  553.4
2021/03/10 20:44:57.000   49.674130263 -125.377271395  1265.0128   1   7   0.0060   0.0047   0.0111   0.0025  -0.0018  -0.0007   0.00  563.2
2021/03/10 20:44:58.000   49.674130270 -125.377271435  1265.0157   1   7   0.0060   0.0047   0.0111   0.0025  -0.0017  -0.0007   0.00  573.5
2021/03/10 20:44:59.000   49.674130243 -125.377271414  1265.0111   1   7   0.0060   0.0047   0.0111   0.0025  -0.0018  -0.0007   0.00  585.1
2021/03/10 20:45:00.000   49.674130262 -125.377271426  1265.0162   1   7   0.0060   0.0047   0.0111   0.0025  -0.0018  -0.0007   0.00  598.1
2021/03/10 20:45:01.000   49.674130257 -125.377271431  1265.0139   1   7   0.0060   0.0047   0.0111   0.0025  -0.0018  -0.0007   0.00  611.9
2021/03/10 20:45:02.000   49.674130255 -125.377271437  1265.0186   1   7   0.0096   0.0047   0.0121   0.0030  -0.0011   0.0060   0.00  625.2
2021/03/10 20:45:03.000   49.674130221 -125.377271436  1265.0188   1   7   0.0096   0.0047   0.0121   0.0030  -0.0011   0.0060   0.00  638.3
2021/03/10 20:45:04.000   49.674130236 -125.377271435  1265.0182   1   7   0.0096   0.0047   0.0121   0.0030  -0.0011   0.0060   0.00  650.8
2021/03/10 20:45:05.000   49.674130253 -125.377271436  1265.0156   1   7   0.0096   0.0047   0.0121   0.0030  -0.0011   0.0060   0.00  664.1
2021/03/10 20:45:06.000   49.674130239 -125.377271464  1265.0167   1   7   0.0060   0.0047   0.0111   0.0025  -0.0018  -0.0007   0.00  679.2
2021/03/10 20:45:07.000   49.674130248 -125.377271448  1265.0148   1   7   0.0060   0.0047   0.0111   0.0025  -0.0018  -0.0007   0.00  694.2
2021/03/10 20:45:08.000   49.674130242 -125.377271467  1265.0154   1   7   0.0060   0.0047   0.0111   0.0025  -0.0018  -0.0007   0.00  710.2
2021/03/10 20:45:09.000   49.674130276 -125.377271459  1265.0167   1   7   0.0096   0.0047   0.0121   0.0030  -0.0011   0.0060   0.00  727.7
2021/03/10 20:45:10.000   49.674130258 -125.377271466  1265.0207   1   7   0.0096   0.0047   0.0121   0.0030  -0.0011   0.0060   0.00  745.5
2021/03/10 20:45:11.000   49.674130235 -125.377271451  1265.0152   1   7   0.0060   0.0047   0.0111   0.0025  -0.0017  -0.0007   0.00  762.5
2021/03/10 20:45:12.000   49.674130277 -125.377271520  1265.0205   1   7   0.0096   0.0047   0.0121   0.0030  -0.0011   0.0060   0.00  782.9
2021/03/10 20:45:13.000   49.674130276 -125.377271518  1265.0182   1   7   0.0096   0.0047   0.0121   0.0030  -0.0011   0.0059   0.00  803.9
2021/03/10 20:45:14.000   49.674130230 -125.377271509  1265.0174   1   7   0.0060   0.0047   0.0111   0.0025  -0.0018  -0.0007   0.00  825.0
2021/03/10 20:45:15.000   49.674130236 -125.377271503  1265.0117   1   7   0.0060   0.0047   0.0111   0.0025  -0.0018  -0.0007   0.00  845.4
2021/03/10 20:45:16.000   49.674130258 -125.377271465  1265.0100   1   7   0.0060   0.0047   0.0111   0.0025  -0.0018  -0.0007   0.00  866.9
2021/03/10 20:45:17.000   49.674130264 -125.377271459  1265.0102   1   7   0.0060   0.0047   0.0111   0.0025  -0.0018  -0.0007   0.00  890.5
2021/03/10 20:45:18.000   49.674130251 -125.377271472  1265.0066   1   7   0.0060   0.0047   0.0111   0.0025  -0.0018  -0.0007   0.00  914.0
2021/03/10 20:45:19.000   49.674130245 -125.377271483  1265.0179   1   7   0.0060   0.0047   0.0111   0.0025  -0.0018  -0.0007   0.00  939.0
2021/03/10 20:45:20.000   49.674130244 -125.377271490  1265.0133   1   7   0.0096   0.0047   0.0121   0.0030  -0.0012   0.0059   0.00  966.6
2021/03/10 20:45:21.000   49.674130215 -125.377271462  1265.0067   1   7   0.0060   0.0047   0.0111   0.0025  -0.0018  -0.0007   0.00  991.7
2021/03/10 20:45:22.000   49.674130229 -125.377271426  1265.0121   1   7   0.0060   0.0047   0.0111   0.0025  -0.0018  -0.0007   0.00  999.9
2021/03/10 20:45:23.000   49.674130227 -125.377271411  1265.0051   1   7   0.0060   0.0047   0.0111   0.0025  -0.0018  -0.0007   0.00  999.9
2021/03/10 20:45:24.000   49.674130184 -125.377271450  1265.0118   1   7   0.0060   0.0047   0.0111   0.0025  -0.0018  -0.0007   0.00  999.9
2021/03/10 20:45:25.000   49.674130223 -125.377271434  1265.0100   1   7   0.0060   0.0047   0.0111   0.0025  -0.0018  -0.0007   0.00  999.9
2021/03/10 20:45:26.000   49.674130228 -125.377271453  1265.0123   1   7   0.0060   0.0047   0.0111   0.0025  -0.0018  -0.0007   0.00  999.9
2021/03/10 20:45:27.000   49.674130219 -125.377271427  1265.0151   1   7   0.0060   0.0047   0.0111   0.0025  -0.0018  -0.0007   0.00  999.9
2021/03/10 20:45:28.000   49.674130202 -125.377271453  1265.0143   1   7   0.0060   0.0047   0.0111   0.0025  -0.0018  -0.0007   0.00  999.9
2021/03/10 20:45:29.000   49.674130221 -125.377271455  1265.0137   1   7   0.0060   0.0047   0.0111   0.0025  -0.0018  -0.0007   0.00  999.9
2021/03/10 20:45:30.000   49.674130167 -125.377271481  1265.0184   1   7   0.0060   0.0047   0.0111   0.0025  -0.0018  -0.0007   0.00  999.9
2021/03/10 20:45:31.000   49.674130194 -125.377271454  1265.0191   1   7   0.0060   0.0047   0.0112   0.0025  -0.0018  -0.0007   0.00  999.9
2021/03/10 20:45:32.000   49.674130197 -125.377271452  1265.0245   1   7   0.0060   0.0047   0.0112   0.0025  -0.0018  -0.0007   0.00  999.9
2021/03/10 20:45:33.000   49.674130214 -125.377271474  1265.0215   1   7   0.0060   0.0047   0.0112   0.0025  -0.0018  -0.0007   0.00  999.9
2021/03/10 20:45:34.000   49.674130347 -125.377271495  1265.0162   1   7   0.0095   0.0047   0.0121   0.0029  -0.0012   0.0059   0.00  999.9
2021/03/10 20:45:35.000   49.674130262 -125.377271435  1265.0223   1   7   0.0095   0.0047   0.0121   0.0029  -0.0012   0.0058   0.00  999.9
2021/03/10 20:45:36.000   49.674130291 -125.377271427  1265.0161   1   7   0.0095   0.0047   0.0121   0.0029  -0.0012   0.0058   0.00  999.9
2021/03/10 20:45:37.000   49.674130288 -125.377271374  1265.0186   1   7   0.0095   0.0047   0.0121   0.0029  -0.0012   0.0058   0.00  999.9
2021/03/10 20:45:38.000   49.674130298 -125.377271406  1265.0189   1   7   0.0095   0.0047   0.0121   0.0029  -0.0012   0.0058   0.00  999.9
2021/03/10 20:45:39.000   49.674130348 -125.377271396  1265.0115   1   7   0.0095   0.0047   0.0121   0.0029  -0.0012   0.0058   0.00  999.9
2021/03/10 20:45:40.000   49.674130386 -125.377271405  1265.0111   1   7   0.0095   0.0047   0.0121   0.0029  -0.0012   0.0058   0.00  999.9
2021/03/10 20:45:41.000   49.674130266 -125.377271420  1265.0057   1   7   0.0060   0.0047   0.0112   0.0025  -0.0018  -0.0007   0.00  999.9
2021/03/10 20:45:42.000   49.674130239 -125.377271427  1265.0105   1   7   0.0060   0.0047   0.0112   0.0025  -0.0018  -0.0007   0.00  999.9
2021/03/10 20:45:43.000   49.674130201 -125.377271462  1265.0093   1   7   0.0060   0.0047   0.0112   0.0025  -0.0018  -0.0007   0.00  999.9
2021/03/10 20:45:44.000   49.674130235 -125.377271452  1265.0042   1   7   0.0060   0.0047   0.0112   0.0025  -0.0018  -0.0007   0.00  999.9
2021/03/10 20:45:45.000   49.674130246 -125.377271462  1265.0119   1   7   0.0060   0.0047   0.0112   0.0024  -0.0018  -0.0007   0.00  999.9
2021/03/10 20:45:46.000   49.674130282 -125.377271383  1265.0106   1   7   0.0060   0.0047   0.0112   0.0024  -0.0018  -0.0007   0.00  999.9
2021/03/10 20:45:47.000   49.674130197 -125.377271388  1265.0092   1   7   0.0060   0.0047   0.0112   0.0024  -0.0018  -0.0007   0.00  999.9
2021/03/10 20:45:48.000   49.674130251 -125.377271385  1265.0048   1   7   0.0060   0.0047   0.0112   0.0024  -0.0018  -0.0007   0.00  999.9
2021/03/10 20:45:49.000   49.674130165 -125.377271387  1265.0063   1   7   0.0060   0.0047   0.0112   0.0025  -0.0018  -0.0007   0.00  999.9
2021/03/10 20:45:50.000   49.674130214 -125.377271448  1265.0088   1   7   0.0060   0.0047   0.0112   0.0024  -0.0018  -0.0007   0.00  999.9
2021/03/10 20:45:51.000   49.674130234 -125.377271442  1265.0143   1   7   0.0060   0.0047   0.0112   0.0024  -0.0018  -0.0007   0.00  999.9
2021/03/10 20:45:52.000   49.674130177 -125.377271432  1265.0128   1   7   0.0060   0.0047   0.0112   0.0024  -0.0018  -0.0007   0.00  999.9
2021/03/10 20:45:53.000   49.674130243 -125.377271410  1265.0204   1   7   0.0060   0.0047   0.0112   0.0024  -0.0018  -0.0007   0.00  999.9
2021/03/10 20:45:54.000   49.674130222 -125.377271405  1265.0204   1   7   0.0060   0.0047   0.0112   0.0024  -0.0018  -0.0007   0.00  999.9
2021/03/10 20:45:55.000   49.674130239 -125.377271387  1265.0146   1   7   0.0060   0.0047   0.0112   0.0024  -0.0018  -0.0007   0.00  999.9
2021/03/10 20:45:56.000   49.674130248 -125.377271381  1265.0124   1   7   0.0060   0.0047   0.0112   0.0024  -0.0018  -0.0007   0.00  999.9
2021/03/10 20:45:57.000   49.674130213 -125.377271428  1265.0176   1   7   0.0060   0.0047   0.0112   0.0024  -0.0018  -0.0007   0.00  999.9
2021/03/10 20:45:58.000   49.674130203 -125.377271420  1265.0183   1   7   0.0060   0.0047   0.0112   0.0024  -0.0018  -0.0007   0.00  999.9
2021/03/10 20:45:59.000   49.674130248 -125.377271392  1265.0168   1   7   0.0060   0.0047   0.0112   0.0024  -0.0018  -0.0007   0.00  999.9
2021/03/10 20:46:00.000   49.674130241 -125.377271392  1265.0118   1   7   0.0060   0.0047   0.0112   0.0024  -0.0018  -0.0007   0.00  999.9
2021/03/10 20:46:01.000   49.674130255 -125.377271379  1265.0111   1   7   0.0060   0.0047   0.0112   0.0024  -0.0018  -0.0007   0.00  999.9
2021/03/10 20:46:02.000   49.674130257 -125.377271371  1265.0061   1   7   0.0060   0.0047   0.0112   0.0024  -0.0018  -0.0007   0.00  999.9
2021/03/10 20:46:03.000   49.674130266 -125.377271379  1265.0080   1   7   0.0060   0.0047   0.0112   0.0024  -0.0018  -0.0007   0.00  999.9
2021/03/10 20:46:04.000   49.674130273 -125.377271375  1265.0033   1   7   0.0060   0.0047   0.0112   0.0024  -0.0018  -0.0007   0.00  999.9
2021/03/10 20:46:05.000   49.674130259 -125.377271390  1265.0072   1   7   0.0060   0.0047   0.0112   0.0024  -0.0018  -0.0007   0.00  999.9
2021/03/10 20:46:06.000   49.674130279 -125.377271424  1265.0110   1   7   0.0060   0.0047   0.0112   0.0024  -0.0018  -0.0007   0.00  999.9
2021/03/10 20:46:07.000   49.674130258 -125.377271427  1265.0116   1   7   0.0060   0.0047   0.0112   0.0024  -0.0018  -0.0007   0.00  999.9
2021/03/10 20:46:08.000   49.674130286 -125.377271385  1265.0055   1   7   0.0060   0.0047   0.0112   0.0024  -0.0018  -0.0007   0.00  999.9
2021/03/10 20:46:09.000   49.674130265 -125.377271400  1265.0048   2   8   0.0060   0.0047   0.0112   0.0024  -0.0018  -0.0006   0.00    2.2
2021/03/10 20:46:10.000   49.674130267 -125.377271366  1264.9927   1   8   0.0060   0.0044   0.0104   0.0022   0.0016   0.0015   0.00    3.3
2021/03/10 20:46:11.000   49.674130289 -125.377271337  1264.9853   1   8   0.0060   0.0044   0.0104   0.0022   0.0016   0.0015   0.00    4.3
2021/03/10 20:46:12.000   49.674130293 -125.377271355  1264.9854   1   8   0.0060   0.0044   0.0104   0.0022   0.0016   0.0015   0.00    5.4
2021/03/10 20:46:13.000   49.674130309 -125.377271352  1264.9861   1   8   0.0060   0.0044   0.0104   0.0022   0.0016   0.0015   0.00    6.5
2021/03/10 20:46:14.000   49.674130310 -125.377271339  1264.9863   1   8   0.0060   0.0044   0.0104   0.0022   0.0016   0.0015   0.00    7.5
2021/03/10 20:46:15.000   49.674130270 -125.377271376  1264.9911   1   8   0.0060   0.0044   0.0104   0.0022   0.0016   0.0015   0.00    8.4
2021/03/10 20:46:16.000   49.674130285 -125.377271361  1264.9959   1   8   0.0060   0.0044   0.0104   0.0022   0.0016   0.0015   0.00    9.1
2021/03/10 20:46:17.000   49.674130264 -125.377271359  1264.9885   1   8   0.0060   0.0044   0.0104   0.0022   0.0016   0.0016   0.00   10.1
2021/03/10 20:46:18.000   49.674130279 -125.377271414  1264.9986   1   8   0.0060   0.0044   0.0104   0.0022   0.0016   0.0015   0.00   10.5
2021/03/10 20:46:19.000   49.674130253 -125.377271417  1264.9984   1   8   0.0060   0.0044   0.0104   0.0022   0.0016   0.0015   0.00   11.0
2021/03/10 20:46:20.000   49.674130320 -125.377271377  1264.9995   1   8   0.0094   0.0045   0.0111   0.0029   0.0021   0.0055   0.00   84.3
2021/03/10 20:46:21.000   49.674130312 -125.377271403  1265.0004   1   8   0.0094   0.0045   0.0111   0.0029   0.0021   0.0055   0.00  158.4
2021/03/10 20:46:22.000   49.674130312 -125.377271385  1265.0029   1   8   0.0093   0.0045   0.0111   0.0029   0.0021   0.0055   0.00  232.8
2021/03/10 20:46:23.000   49.674130336 -125.377271364  1265.0008   1   8   0.0093   0.0045   0.0111   0.0029   0.0021   0.0055   0.00  307.1
2021/03/10 20:46:24.000   49.674130355 -125.377271360  1265.0037   1   8   0.0093   0.0045   0.0111   0.0029   0.0021   0.0055   0.00  381.2
2021/03/10 20:46:25.000   49.674130348 -125.377271349  1264.9993   1   8   0.0093   0.0045   0.0111   0.0029   0.0021   0.0055   0.00  455.1
2021/03/10 20:46:26.000   49.674130320 -125.377271374  1265.0046   1   8   0.0093   0.0045   0.0111   0.0029   0.0021   0.0055   0.00  528.3
2021/03/10 20:46:27.000   49.674130251 -125.377271404  1265.0018   1   8   0.0060   0.0044   0.0104   0.0022   0.0016   0.0015   0.00  597.9
2021/03/10 20:46:28.000   49.674130271 -125.377271379  1265.0024   1   8   0.0060   0.0044   0.0104   0.0022   0.0016   0.0015   0.00  666.2
2021/03/10 20:46:29.000   49.674130247 -125.377271398  1265.0036   2   8   0.0060   0.0044   0.0104   0.0022   0.0016   0.0016   0.00    2.7
2021/03/10 20:46:30.000   49.674130266 -125.377271351  1264.9959   1   8   0.0059   0.0043   0.0099   0.0020   0.0025   0.0021   0.00    4.3
2021/03/10 20:46:31.000   49.674130265 -125.377271317  1264.9908   1   8   0.0059   0.0043   0.0099   0.0020   0.0025   0.0021   0.00    5.7
2021/03/10 20:46:32.000   49.674130270 -125.377271334  1264.9906   1   8   0.0059   0.0043   0.0099   0.0020   0.0025   0.0021   0.00    7.0
2021/03/10 20:46:33.000   49.674130295 -125.377271336  1264.9947   1   8   0.0059   0.0043   0.0099   0.0020   0.0025   0.0021   0.00    8.5
2021/03/10 20:46:34.000   49.674130295 -125.377271311  1264.9886   1   8   0.0059   0.0043   0.0099   0.0020   0.0025   0.0021   0.00   10.0
2021/03/10 20:46:35.000   49.674130298 -125.377271317  1264.9894   1   8   0.0059   0.0043   0.0099   0.0020   0.0025   0.0021   0.00   11.3
2021/03/10 20:46:36.000   49.674130278 -125.377271344  1264.9902   1   8   0.0059   0.0043   0.0099   0.0020   0.0025   0.0021   0.00   12.5
2021/03/10 20:46:37.000   49.674130257 -125.377271370  1264.9994   1   8   0.0059   0.0043   0.0099   0.0020   0.0025   0.0021   0.00   13.6
2021/03/10 20:46:38.000   49.674130282 -125.377271368  1264.9946   1   8   0.0059   0.0043   0.0099   0.0020   0.0025   0.0021   0.00   14.4
2021/03/10 20:46:39.000   49.674130255 -125.377271361  1264.9980   1   8   0.0059   0.0043   0.0099   0.0020   0.0025   0.0021   0.00   15.1
2021/03/10 20:46:40.000   49.674130287 -125.377271345  1264.9979   1   8   0.0059   0.0043   0.0099   0.0020   0.0025   0.0021   0.00   74.9
2021/03/10 20:46:41.000   49.674130269 -125.377271370  1264.9949   1   8   0.0059   0.0043   0.0099   0.0020   0.0025   0.0021   0.00  134.4
2021/03/10 20:46:42.000   49.674130275 -125.377271338  1264.9923   1   8   0.0059   0.0043   0.0099   0.0020   0.0025   0.0021   0.00  193.3
2021/03/10 20:46:43.000   49.674130276 -125.377271346  1264.9949   1   8   0.0059   0.0043   0.0099   0.0020   0.0025   0.0021   0.00  250.3
2021/03/10 20:46:44.000   49.674130291 -125.377271330  1264.9925   1   8   0.0059   0.0043   0.0099   0.0020   0.0025   0.0021   0.00  306.5
2021/03/10 20:46:45.000   49.674130280 -125.377271314  1264.9905   1   8   0.0059   0.0043   0.0099   0.0020   0.0025   0.0021   0.00  361.6
2021/03/10 20:46:46.000   49.674130242 -125.377271324  1264.9897   1   8   0.0059   0.0043   0.0099   0.0020   0.0025   0.0021   0.00  416.2
2021/03/10 20:46:47.000   49.674130279 -125.377271312  1264.9890   1   8   0.0059   0.0043   0.0099   0.0020   0.0025   0.0021   0.00  469.6
2021/03/10 20:46:48.000   49.674130270 -125.377271338  1264.9925   1   8   0.0059   0.0043   0.0099   0.0020   0.0025   0.0021   0.00  521.1
2021/03/10 20:46:49.000   49.674130245 -125.377271347  1264.9968   1   8   0.0059   0.0043   0.0099   0.0020   0.0025   0.0021   0.00  570.5
2021/03/10 20:46:50.000   49.674130243 -125.377271335  1264.9937   1   8   0.0059   0.0043   0.0099   0.0020   0.0025   0.0021   0.00  620.5
2021/03/10 20:46:51.000   49.674130214 -125.377271351  1264.9990   1   8   0.0059   0.0043   0.0099   0.0020   0.0025   0.0021   0.00  669.2
2021/03/10 20:46:52.000   49.674130229 -125.377271372  1265.0022   1   8   0.0059   0.0043   0.0099   0.0020   0.0025   0.0021   0.00  716.8
2021/03/10 20:46:53.000   49.674130241 -125.377271366  1264.9923   1   8   0.0059   0.0043   0.0099   0.0020   0.0025   0.0021   0.00  762.9
