% program   : RTKPOST ver.2.4.3 b33
% inp file  : E:\Alex_Working\ACO\Cruickshank\March 08-12th\1 Raw\Rover\20180680.21O
% inp file  : E:\Alex_Working\ACO\Cruickshank\March 08-12th\1 Raw\Rover\20180680.21N
% obs start : 2021/03/09 19:24:46.0 GPST (week2148 242686.0s)
% obs end   : 2021/03/11 22:33:45.0 GPST (week2148 426825.0s)
% pos mode  : single
% elev mask : 15.0 deg
% ionos opt : broadcast
% tropo opt : saastamoinen
% ephemeris : broadcast
% navi sys  : gps glonass galileo qzss beidou sbas
%
% (lat/lon/height=WGS84/ellipsoidal,Q=1:fix,2:float,3:sbas,4:dgps,5:single,6:ppp,ns=# of satellites)
%  GPST                  latitude(deg) longitude(deg)  height(m)   Q  ns   sdn(m)   sde(m)   sdu(m)  sdne(m)  sdeu(m)  sdun(m) age(s)  ratio
2021/03/09 19:24:46.000   49.668969522 -125.361452239  1345.6869   5   6   5.1573   2.5914  10.1246  -2.0235  -3.5395   5.3507   0.00    0.0
2021/03/09 19:24:47.000   49.668972682 -125.361463967  1345.1920   5   6   5.1569   2.5909  10.1201  -2.0223  -3.5371   5.3480   0.00    0.0
2021/03/09 19:24:48.000   49.668979552 -125.361481348  1346.6876   5   6   5.1564   2.5904  10.1156  -2.0211  -3.5346   5.3453   0.00    0.0
2021/03/09 19:24:49.000   49.668984537 -125.361493974  1346.9592   5   6   5.1560   2.5899  10.1112  -2.0199  -3.5322   5.3427   0.00    0.0
2021/03/09 19:24:50.000   49.668986283 -125.361498931  1347.3578   5   7   4.6270   2.4924   7.0845  -1.5745  -2.7202   3.4822   0.00    0.0
2021/03/09 19:24:51.000   49.668982909 -125.361503817  1347.0087   5   7   4.6274   2.4922   7.0833  -1.5742  -2.7194   3.4816   0.00    0.0
2021/03/09 19:24:52.000   49.668979973 -125.361512914  1347.3569   5   7   4.6277   2.4921   7.0822  -1.5740  -2.7185   3.4810   0.00    0.0
2021/03/09 19:24:53.000   49.668982745 -125.361519910  1346.8089   5   7   4.6281   2.4919   7.0811  -1.5737  -2.7177   3.4804   0.00    0.0
2021/03/09 19:24:54.000   49.668983542 -125.361527206  1346.7479   5   7   4.6284   2.4917   7.0799  -1.5734  -2.7168   3.4798   0.00    0.0
2021/03/09 19:24:55.000   49.668989463 -125.361540653  1347.3049   5   7   4.6288   2.4915   7.0788  -1.5732  -2.7159   3.4792   0.00    0.0
2021/03/09 19:24:56.000   49.668985170 -125.361547290  1346.7695   5   7   4.6291   2.4913   7.0777  -1.5729  -2.7151   3.4786   0.00    0.0
2021/03/09 19:24:57.000   49.668987147 -125.361567401  1346.9629   5   7   4.6295   2.4912   7.0765  -1.5726  -2.7142   3.4780   0.00    0.0
2021/03/09 19:24:58.000   49.668986656 -125.361586448  1347.8771   5   7   4.6298   2.4910   7.0754  -1.5724  -2.7134   3.4774   0.00    0.0
2021/03/09 19:24:59.000   49.668983533 -125.361609306  1349.7131   5   7   4.6302   2.4908   7.0743  -1.5721  -2.7125   3.4767   0.00    0.0
2021/03/09 19:25:00.000   49.668988522 -125.361608401  1348.4106   5   7   4.6305   2.4906   7.0731  -1.5718  -2.7116   3.4761   0.00    0.0
2021/03/09 19:25:01.000   49.669004286 -125.361605578  1346.7338   5   7   4.6309   2.4905   7.0720  -1.5716  -2.7108   3.4755   0.00    0.0
2021/03/09 19:25:02.000   49.669003446 -125.361618561  1347.7558   5   7   4.6312   2.4903   7.0708  -1.5713  -2.7099   3.4749   0.00    0.0
2021/03/09 19:25:03.000   49.669003699 -125.361634754  1347.4612   5   7   4.6316   2.4901   7.0697  -1.5710  -2.7091   3.4743   0.00    0.0
2021/03/09 19:25:04.000   49.669002594 -125.361640372  1346.9688   5   7   4.6320   2.4899   7.0686  -1.5707  -2.7082   3.4737   0.00    0.0
2021/03/09 19:25:05.000   49.669001054 -125.361646225  1346.8220   5   7   4.6323   2.4898   7.0674  -1.5705  -2.7073   3.4731   0.00    0.0
2021/03/09 19:25:06.000   49.669003264 -125.361662887  1347.4301   5   7   4.6327   2.4896   7.0663  -1.5702  -2.7065   3.4724   0.00    0.0
2021/03/09 19:25:07.000   49.669003883 -125.361671479  1348.2342   5   7   4.6330   2.4894   7.0652  -1.5699  -2.7056   3.4718   0.00    0.0
2021/03/09 19:25:08.000   49.669008986 -125.361680708  1349.9758   5   7   4.6334   2.4892   7.0640  -1.5697  -2.7047   3.4712   0.00    0.0
2021/03/09 19:25:09.000   49.669006310 -125.361692030  1349.5347   5   7   4.6337   2.4891   7.0629  -1.5694  -2.7039   3.4706   0.00    0.0
2021/03/09 19:25:10.000   49.669005771 -125.361702638  1349.4745   5   7   4.6341   2.4889   7.0617  -1.5691  -2.7030   3.4700   0.00    0.0
2021/03/09 19:25:11.000   49.669018762 -125.361711380  1349.4426   5   7   4.6344   2.4887   7.0606  -1.5689  -2.7022   3.4693   0.00    0.0
2021/03/09 19:25:12.000   49.669027239 -125.361719112  1348.4974   5   7   4.6348   2.4885   7.0595  -1.5686  -2.7013   3.4687   0.00    0.0
2021/03/09 19:25:13.000   49.669035164 -125.361727671  1348.8446   5   7   4.6351   2.4884   7.0583  -1.5683  -2.7004   3.4681   0.00    0.0
2021/03/09 19:25:14.000   49.669030790 -125.361715959  1347.9912   5   7   4.6355   2.4882   7.0572  -1.5680  -2.6996   3.4675   0.00    0.0
2021/03/09 19:25:15.000   49.669029739 -125.361729444  1350.1028   5   7   4.6358   2.4880   7.0561  -1.5678  -2.6987   3.4668   0.00    0.0
2021/03/09 19:25:16.000   49.669022780 -125.361740742  1351.5423   5   7   4.6362   2.4878   7.0549  -1.5675  -2.6979   3.4662   0.00    0.0
2021/03/09 19:25:17.000   49.669015366 -125.361736138  1351.9739   5   7   4.6365   2.4877   7.0538  -1.5672  -2.6970   3.4656   0.00    0.0
2021/03/09 19:25:18.000   49.669017016 -125.361733716  1352.3390   5   7   4.6369   2.4875   7.0526  -1.5669  -2.6961   3.4650   0.00    0.0
2021/03/09 19:25:19.000   49.669018267 -125.361726864  1352.6852   5   7   4.6372   2.4873   7.0515  -1.5667  -2.6953   3.4644   0.00    0.0
2021/03/09 19:25:20.000   49.669019240 -125.361727328  1351.8641   5   7   4.6376   2.4871   7.0504  -1.5664  -2.6944   3.4637   0.00    0.0
2021/03/09 19:25:21.000   49.669018447 -125.361723585  1351.1621   5   7   4.6379   2.4870   7.0492  -1.5661  -2.6935   3.4631   0.00    0.0
2021/03/09 19:25:22.000   49.669021597 -125.361721122  1350.4782   5   7   4.6383   2.4868   7.0481  -1.5658  -2.6927   3.4625   0.00    0.0
2021/03/09 19:25:23.000   49.669023925 -125.361721168  1350.0098   5   7   4.6386   2.4866   7.0469  -1.5656  -2.6918   3.4618   0.00    0.0
2021/03/09 19:25:24.000   49.669024824 -125.361721665  1349.7263   5   7   4.6389   2.4864   7.0458  -1.5653  -2.6910   3.4612   0.00    0.0
2021/03/09 19:25:25.000   49.669021556 -125.361722019  1348.9441   5   7   4.6393   2.4863   7.0447  -1.5650  -2.6901   3.4606   0.00    0.0
2021/03/09 19:25:26.000   49.669017839 -125.361721964  1347.9221   5   7   4.6396   2.4861   7.0435  -1.5648  -2.6892   3.4600   0.00    0.0
2021/03/09 19:25:27.000   49.669017317 -125.361722877  1347.3691   5   7   4.6400   2.4859   7.0424  -1.5645  -2.6884   3.4593   0.00    0.0
2021/03/09 19:25:28.000   49.669017559 -125.361722154  1347.7873   5   7   4.6403   2.4857   7.0412  -1.5642  -2.6875   3.4587   0.00    0.0
2021/03/09 19:25:29.000   49.669016194 -125.361721875  1347.8279   5   7   4.6407   2.4856   7.0401  -1.5639  -2.6866   3.4581   0.00    0.0
2021/03/09 19:25:30.000   49.669015400 -125.361722410  1348.0064   5   7   4.6410   2.4854   7.0390  -1.5637  -2.6858   3.4574   0.00    0.0
2021/03/09 19:25:31.000   49.669015950 -125.361723015  1348.0292   5   7   4.6414   2.4852   7.0378  -1.5634  -2.6849   3.4568   0.00    0.0
2021/03/09 19:25:32.000   49.669016562 -125.361723240  1348.0914   5   7   4.6417   2.4851   7.0367  -1.5631  -2.6841   3.4562   0.00    0.0
2021/03/09 19:25:33.000   49.669016579 -125.361724638  1348.1571   5   7   4.6421   2.4849   7.0355  -1.5628  -2.6832   3.4555   0.00    0.0
2021/03/09 19:25:34.000   49.669017296 -125.361724055  1348.3397   5   7   4.6424   2.4847   7.0344  -1.5625  -2.6823   3.4549   0.00    0.0
2021/03/09 19:25:35.000   49.669015436 -125.361724674  1347.8599   5   7   4.6428   2.4845   7.0332  -1.5623  -2.6815   3.4543   0.00    0.0
2021/03/09 19:25:36.000   49.669017254 -125.361724510  1348.1350   5   7   4.6431   2.4844   7.0321  -1.5620  -2.6806   3.4536   0.00    0.0
2021/03/09 19:25:37.000   49.669018911 -125.361724381  1348.3467   5   7   4.6435   2.4842   7.0310  -1.5617  -2.6797   3.4530   0.00    0.0
2021/03/09 19:25:38.000   49.669021226 -125.361723993  1348.7735   5   7   4.6438   2.4840   7.0298  -1.5614  -2.6789   3.4524   0.00    0.0
2021/03/09 19:25:39.000   49.669024945 -125.361724280  1349.5726   5   7   4.6442   2.4839   7.0287  -1.5612  -2.6780   3.4517   0.00    0.0
2021/03/09 19:25:40.000   49.669026424 -125.361722943  1350.3458   5   7   4.6445   2.4837   7.0275  -1.5609  -2.6772   3.4511   0.00    0.0
2021/03/09 19:25:41.000   49.669024920 -125.361721737  1350.3262   5   7   4.6448   2.4835   7.0264  -1.5606  -2.6763   3.4505   0.00    0.0
2021/03/09 19:25:42.000   49.669026560 -125.361721512  1350.7052   5   7   4.6452   2.4833   7.0252  -1.5603  -2.6754   3.4498   0.00    0.0
2021/03/09 19:25:43.000   49.669025130 -125.361721652  1350.3282   5   7   4.6455   2.4832   7.0241  -1.5601  -2.6746   3.4492   0.00    0.0
2021/03/09 19:25:44.000   49.669023291 -125.361721028  1349.9349   5   7   4.6459   2.4830   7.0230  -1.5598  -2.6737   3.4485   0.00    0.0
2021/03/09 19:25:45.000   49.669021427 -125.361721522  1349.5396   5   7   4.6462   2.4828   7.0218  -1.5595  -2.6728   3.4479   0.00    0.0
2021/03/09 19:25:46.000   49.669020544 -125.361721209  1349.4203   5   7   4.6466   2.4827   7.0207  -1.5592  -2.6720   3.4473   0.00    0.0
2021/03/09 19:25:47.000   49.669021446 -125.361721614  1349.3170   5   7   4.6469   2.4825   7.0195  -1.5589  -2.6711   3.4466   0.00    0.0
2021/03/09 19:25:48.000   49.669020235 -125.361721423  1349.1262   5   7   4.6473   2.4823   7.0184  -1.5587  -2.6702   3.4460   0.00    0.0
2021/03/09 19:25:49.000   49.669018934 -125.361720062  1348.8400   5   7   4.6476   2.4821   7.0172  -1.5584  -2.6694   3.4453   0.00    0.0
2021/03/09 19:25:50.000   49.669018180 -125.361718424  1348.8171   5   7   4.6480   2.4820   7.0161  -1.5581  -2.6685   3.4447   0.00    0.0
2021/03/09 19:25:51.000   49.669019117 -125.361719067  1349.1031   5   7   4.6483   2.4818   7.0150  -1.5578  -2.6676   3.4441   0.00    0.0
2021/03/09 19:25:52.000   49.669017894 -125.361718658  1349.0219   5   7   4.6486   2.4816   7.0138  -1.5575  -2.6668   3.4434   0.00    0.0
2021/03/09 19:25:53.000   49.669018311 -125.361718524  1349.2380   5   7   4.6490   2.4815   7.0127  -1.5573  -2.6659   3.4428   0.00    0.0
2021/03/09 19:25:54.000   49.669017472 -125.361717164  1348.9243   5   7   4.6493   2.4813   7.0115  -1.5570  -2.6650   3.4421   0.00    0.0
2021/03/09 19:25:55.000   49.669016549 -125.361717609  1348.7340   5   7   4.6497   2.4811   7.0104  -1.5567  -2.6642   3.4415   0.00    0.0
2021/03/09 19:25:56.000   49.669015558 -125.361717214  1348.6248   5   7   4.6500   2.4810   7.0092  -1.5564  -2.6633   3.4408   0.00    0.0
2021/03/09 19:25:57.000   49.669014441 -125.361718985  1348.6638   5   7   4.6504   2.4808   7.0081  -1.5561  -2.6624   3.4402   0.00    0.0
2021/03/09 19:25:58.000   49.669013638 -125.361718275  1348.8319   5   7   4.6507   2.4806   7.0069  -1.5559  -2.6616   3.4395   0.00    0.0
2021/03/09 19:25:59.000   49.669014574 -125.361719650  1348.9287   5   7   4.6510   2.4804   7.0058  -1.5556  -2.6607   3.4389   0.00    0.0
2021/03/09 19:26:00.000   49.669016438 -125.361720302  1349.3020   5   7   4.6514   2.4803   7.0046  -1.5553  -2.6598   3.4383   0.00    0.0
2021/03/09 19:26:01.000   49.669017019 -125.361721262  1349.1288   5   7   4.6517   2.4801   7.0035  -1.5550  -2.6590   3.4376   0.00    0.0
2021/03/09 19:26:02.000   49.669017920 -125.361720752  1349.2699   5   7   4.6521   2.4799   7.0024  -1.5547  -2.6581   3.4370   0.00    0.0
2021/03/09 19:26:03.000   49.669019401 -125.361721717  1349.1563   5   7   4.6524   2.4798   7.0012  -1.5544  -2.6572   3.4363   0.00    0.0
2021/03/09 19:26:04.000   49.669018851 -125.361721622  1349.2046   5   7   4.6528   2.4796   7.0001  -1.5542  -2.6564   3.4357   0.00    0.0
2021/03/09 19:26:05.000   49.669019500 -125.361722002  1349.4347   5   7   4.6531   2.4794   6.9989  -1.5539  -2.6555   3.4350   0.00    0.0
2021/03/09 19:26:06.000   49.669020635 -125.361722567  1349.5534   5   7   4.6534   2.4793   6.9978  -1.5536  -2.6546   3.4344   0.00    0.0
2021/03/09 19:26:07.000   49.669022255 -125.361723501  1349.6078   5   7   4.6538   2.4791   6.9966  -1.5533  -2.6538   3.4337   0.00    0.0
2021/03/09 19:26:08.000   49.669022245 -125.361723624  1349.3916   5   7   4.6541   2.4789   6.9955  -1.5530  -2.6529   3.4330   0.00    0.0
2021/03/09 19:26:09.000   49.669022364 -125.361723549  1349.6233   5   7   4.6545   2.4788   6.9943  -1.5528  -2.6520   3.4324   0.00    0.0
2021/03/09 19:26:10.000   49.669022202 -125.361724496  1349.8477   5   7   4.6548   2.4786   6.9932  -1.5525  -2.6512   3.4317   0.00    0.0
2021/03/09 19:26:11.000   49.669021253 -125.361723968  1349.9697   5   7   4.6551   2.4784   6.9920  -1.5522  -2.6503   3.4311   0.00    0.0
2021/03/09 19:26:12.000   49.669021476 -125.361724091  1349.9968   5   7   4.6555   2.4783   6.9909  -1.5519  -2.6494   3.4304   0.00    0.0
2021/03/09 19:26:13.000   49.669020617 -125.361723326  1350.2291   5   7   4.6558   2.4781   6.9897  -1.5516  -2.6486   3.4298   0.00    0.0
2021/03/09 19:26:14.000   49.669020908 -125.361721282  1350.3688   5   7   4.6562   2.4779   6.9886  -1.5513  -2.6477   3.4291   0.00    0.0
2021/03/09 19:26:15.000   49.669021860 -125.361720731  1350.5366   5   7   4.6565   2.4778   6.9874  -1.5510  -2.6468   3.4285   0.00    0.0
2021/03/09 19:26:16.000   49.669021618 -125.361720282  1350.4132   5   7   4.6569   2.4776   6.9863  -1.5508  -2.6460   3.4278   0.00    0.0
2021/03/09 19:26:17.000   49.669021724 -125.361720636  1350.2907   5   7   4.6572   2.4774   6.9851  -1.5505  -2.6451   3.4272   0.00    0.0
2021/03/09 19:26:18.000   49.669022170 -125.361720589  1350.3671   5   7   4.6575   2.4773   6.9840  -1.5502  -2.6442   3.4265   0.00    0.0
2021/03/09 19:26:19.000   49.669021258 -125.361719621  1350.1511   5   7   4.6579   2.4771   6.9828  -1.5499  -2.6434   3.4258   0.00    0.0
2021/03/09 19:26:20.000   49.669020712 -125.361720157  1350.1563   5   7   4.6582   2.4769   6.9817  -1.5496  -2.6425   3.4252   0.00    0.0
2021/03/09 19:26:21.000   49.669019811 -125.361719901  1350.1133   5   7   4.6585   2.4768   6.9806  -1.5493  -2.6416   3.4245   0.00    0.0
2021/03/09 19:26:22.000   49.669019502 -125.361719592  1350.1670   5   7   4.6589   2.4766   6.9794  -1.5491  -2.6408   3.4239   0.00    0.0
2021/03/09 19:26:23.000   49.669019203 -125.361720195  1350.2857   5   7   4.6592   2.4764   6.9783  -1.5488  -2.6399   3.4232   0.00    0.0
2021/03/09 19:26:24.000   49.669019794 -125.361720649  1350.4390   5   7   4.6596   2.4763   6.9771  -1.5485  -2.6390   3.4225   0.00    0.0
2021/03/09 19:26:25.000   49.669019815 -125.361720609  1350.4485   5   7   4.6599   2.4761   6.9760  -1.5482  -2.6382   3.4219   0.00    0.0
2021/03/09 19:26:26.000   49.669020446 -125.361721064  1350.4506   5   7   4.6602   2.4759   6.9748  -1.5479  -2.6373   3.4212   0.00    0.0
2021/03/09 19:26:27.000   49.669021720 -125.361721680  1350.4651   5   7   4.6606   2.4758   6.9737  -1.5476  -2.6364   3.4205   0.00    0.0
2021/03/09 19:26:28.000   49.669021283 -125.361721297  1350.3950   5   7   4.6609   2.4756   6.9725  -1.5473  -2.6356   3.4199   0.00    0.0
2021/03/09 19:26:29.000   49.669022217 -125.361722260  1350.5771   5   7   4.6613   2.4754   6.9714  -1.5470  -2.6347   3.4192   0.00    0.0
2021/03/09 19:26:30.000   49.669022802 -125.361721706  1350.4999   5   7   4.6616   2.4753   6.9702  -1.5468  -2.6338   3.4186   0.00    0.0
2021/03/09 19:26:31.000   49.669023224 -125.361721335  1350.4603   5   7   4.6619   2.4751   6.9691  -1.5465  -2.6329   3.4179   0.00    0.0
2021/03/09 19:26:32.000   49.669023885 -125.361721166  1350.6080   5   7   4.6623   2.4749   6.9679  -1.5462  -2.6321   3.4172   0.00    0.0
2021/03/09 19:26:33.000   49.669024892 -125.361721145  1350.7262   5   7   4.6626   2.4748   6.9668  -1.5459  -2.6312   3.4166   0.00    0.0
2021/03/09 19:26:34.000   49.669023883 -125.361720605  1350.7592   5   7   4.6629   2.4746   6.9656  -1.5456  -2.6303   3.4159   0.00    0.0
2021/03/09 19:26:35.000   49.669023727 -125.361719411  1350.7666   5   7   4.6633   2.4744   6.9645  -1.5453  -2.6295   3.4152   0.00    0.0
2021/03/09 19:26:36.000   49.669021763 -125.361718343  1350.5647   5   7   4.6636   2.4743   6.9633  -1.5450  -2.6286   3.4146   0.00    0.0
2021/03/09 19:26:37.000   49.669022259 -125.361718392  1350.5575   5   7   4.6640   2.4741   6.9622  -1.5447  -2.6277   3.4139   0.00    0.0
2021/03/09 19:26:38.000   49.669022645 -125.361717661  1350.5039   5   7   4.6643   2.4739   6.9610  -1.5445  -2.6269   3.4132   0.00    0.0
2021/03/09 19:26:39.000   49.669022685 -125.361718520  1350.4371   5   7   4.6646   2.4738   6.9599  -1.5442  -2.6260   3.4126   0.00    0.0
2021/03/09 19:26:40.000   49.669021507 -125.361718832  1350.0483   5   7   4.6650   2.4736   6.9587  -1.5439  -2.6251   3.4119   0.00    0.0
2021/03/09 19:26:41.000   49.669020145 -125.361719321  1349.8841   5   7   4.6653   2.4735   6.9576  -1.5436  -2.6243   3.4112   0.00    0.0
2021/03/09 19:26:42.000   49.669020373 -125.361719701  1349.8861   5   7   4.6656   2.4733   6.9564  -1.5433  -2.6234   3.4105   0.00    0.0
2021/03/09 19:26:43.000   49.669020829 -125.361720417  1350.0204   5   7   4.6660   2.4731   6.9553  -1.5430  -2.6225   3.4099   0.00    0.0
2021/03/09 19:26:44.000   49.669022518 -125.361719647  1350.0848   5   7   4.6663   2.4730   6.9541  -1.5427  -2.6216   3.4092   0.00    0.0
2021/03/09 19:26:45.000   49.669022830 -125.361718938  1350.1132   5   7   4.6667   2.4728   6.9530  -1.5424  -2.6208   3.4085   0.00    0.0
2021/03/09 19:26:46.000   49.669022188 -125.361718605  1349.9040   5   7   4.6670   2.4726   6.9518  -1.5421  -2.6199   3.4079   0.00    0.0
2021/03/09 19:26:47.000   49.669020970 -125.361716776  1349.5851   5   7   4.6673   2.4725   6.9507  -1.5418  -2.6190   3.4072   0.00    0.0
2021/03/09 19:26:48.000   49.669017852 -125.361715271  1349.3367   5   7   4.6677   2.4723   6.9495  -1.5416  -2.6182   3.4065   0.00    0.0
2021/03/09 19:26:49.000   49.669017076 -125.361715471  1349.3103   5   7   4.6680   2.4721   6.9484  -1.5413  -2.6173   3.4058   0.00    0.0
2021/03/09 19:26:50.000   49.669017944 -125.361716147  1349.5316   5   7   4.6683   2.4720   6.9472  -1.5410  -2.6164   3.4052   0.00    0.0
2021/03/09 19:26:51.000   49.669018275 -125.361716627  1349.5471   5   7   4.6687   2.4718   6.9461  -1.5407  -2.6156   3.4045   0.00    0.0
2021/03/09 19:26:52.000   49.669018535 -125.361716708  1349.5666   5   7   4.6690   2.4717   6.9449  -1.5404  -2.6147   3.4038   0.00    0.0
2021/03/09 19:26:53.000   49.669017702 -125.361715085  1349.3036   5   7   4.6693   2.4715   6.9438  -1.5401  -2.6138   3.4031   0.00    0.0
2021/03/09 19:26:54.000   49.669017876 -125.361715447  1349.3024   5   7   4.6697   2.4713   6.9426  -1.5398  -2.6129   3.4025   0.00    0.0
2021/03/09 19:26:55.000   49.669017266 -125.361715279  1349.1065   5   7   4.6700   2.4712   6.9415  -1.5395  -2.6121   3.4018   0.00    0.0
2021/03/09 19:26:56.000   49.669017402 -125.361716731  1349.2862   5   7   4.6703   2.4710   6.9403  -1.5392  -2.6112   3.4011   0.00    0.0
2021/03/09 19:26:57.000   49.669018292 -125.361717140  1349.4269   5   7   4.6707   2.4709   6.9391  -1.5389  -2.6103   3.4004   0.00    0.0
2021/03/09 19:26:58.000   49.669017640 -125.361717285  1349.3691   5   7   4.6710   2.4707   6.9380  -1.5386  -2.6095   3.3997   0.00    0.0
2021/03/09 19:26:59.000   49.669019037 -125.361716691  1349.4792   5   7   4.6713   2.4705   6.9368  -1.5384  -2.6086   3.3991   0.00    0.0
2021/03/09 19:27:00.000   49.669017980 -125.361716909  1349.5580   5   7   4.6717   2.4704   6.9357  -1.5381  -2.6077   3.3984   0.00    0.0
2021/03/09 19:27:01.000   49.669017912 -125.361716945  1349.6766   5   7   4.6720   2.4702   6.9345  -1.5378  -2.6068   3.3977   0.00    0.0
2021/03/09 19:27:02.000   49.669017849 -125.361716924  1349.6807   5   7   4.6723   2.4700   6.9334  -1.5375  -2.6060   3.3970   0.00    0.0
2021/03/09 19:27:03.000   49.669019230 -125.361718634  1349.6809   5   7   4.6727   2.4699   6.9322  -1.5372  -2.6051   3.3963   0.00    0.0
2021/03/09 19:27:04.000   49.669018934 -125.361718560  1349.6075   5   7   4.6730   2.4697   6.9311  -1.5369  -2.6042   3.3957   0.00    0.0
2021/03/09 19:27:05.000   49.669019294 -125.361718803  1349.6137   5   7   4.6733   2.4696   6.9299  -1.5366  -2.6034   3.3950   0.00    0.0
2021/03/09 19:27:06.000   49.669019384 -125.361719455  1349.7091   5   7   4.6737   2.4694   6.9288  -1.5363  -2.6025   3.3943   0.00    0.0
2021/03/09 19:27:07.000   49.669019306 -125.361720171  1349.6811   5   7   4.6740   2.4692   6.9276  -1.5360  -2.6016   3.3936   0.00    0.0
2021/03/09 19:27:08.000   49.669019052 -125.361721411  1349.8624   5   7   4.6743   2.4691   6.9265  -1.5357  -2.6007   3.3929   0.00    0.0
2021/03/09 19:27:09.000   49.669017535 -125.361721067  1349.6889   5   7   4.6747   2.4689   6.9253  -1.5354  -2.5999   3.3922   0.00    0.0
2021/03/09 19:27:10.000   49.669016254 -125.361720616  1349.4987   5   7   4.6750   2.4688   6.9242  -1.5351  -2.5990   3.3916   0.00    0.0
2021/03/09 19:27:11.000   49.669015061 -125.361720776  1349.4416   5   7   4.6753   2.4686   6.9230  -1.5348  -2.5981   3.3909   0.00    0.0
2021/03/09 19:27:12.000   49.669015233 -125.361720176  1349.2671   5   7   4.6757   2.4684   6.9219  -1.5345  -2.5973   3.3902   0.00    0.0
2021/03/09 19:27:13.000   49.669015099 -125.361720233  1349.1810   5   7   4.6760   2.4683   6.9207  -1.5342  -2.5964   3.3895   0.00    0.0
2021/03/09 19:27:14.000   49.669014340 -125.361720350  1349.2285   5   7   4.6763   2.4681   6.9196  -1.5339  -2.5955   3.3888   0.00    0.0
2021/03/09 19:27:15.000   49.669015959 -125.361721079  1349.2611   5   7   4.6767   2.4680   6.9184  -1.5337  -2.5946   3.3881   0.00    0.0
2021/03/09 19:27:16.000   49.669016645 -125.361720016  1349.1915   5   7   4.6770   2.4678   6.9173  -1.5334  -2.5938   3.3874   0.00    0.0
2021/03/09 19:27:17.000   49.669016542 -125.361719927  1349.3565   5   7   4.6773   2.4676   6.9161  -1.5331  -2.5929   3.3868   0.00    0.0
2021/03/09 19:27:18.000   49.669015861 -125.361719573  1349.4077   5   7   4.6776   2.4675   6.9149  -1.5328  -2.5920   3.3861   0.00    0.0
2021/03/09 19:27:19.000   49.669015689 -125.361719448  1349.4867   5   7   4.6780   2.4673   6.9138  -1.5325  -2.5911   3.3854   0.00    0.0
2021/03/09 19:27:20.000   49.669015306 -125.361719774  1349.6856   5   7   4.6783   2.4672   6.9126  -1.5322  -2.5903   3.3847   0.00    0.0
2021/03/09 19:27:21.000   49.669015443 -125.361719606  1349.8634   5   7   4.6786   2.4670   6.9115  -1.5319  -2.5894   3.3840   0.00    0.0
2021/03/09 19:27:22.000   49.669015507 -125.361719031  1349.9859   5   7   4.6790   2.4668   6.9103  -1.5316  -2.5885   3.3833   0.00    0.0
2021/03/09 19:27:23.000   49.669014581 -125.361718276  1349.8910   5   7   4.6793   2.4667   6.9092  -1.5313  -2.5877   3.3826   0.00    0.0
2021/03/09 19:27:24.000   49.669016009 -125.361717567  1350.0022   5   7   4.6796   2.4665   6.9080  -1.5310  -2.5868   3.3819   0.00    0.0
2021/03/09 19:27:25.000   49.669016970 -125.361716795  1349.8729   5   7   4.6800   2.4664   6.9069  -1.5307  -2.5859   3.3812   0.00    0.0
2021/03/09 19:27:26.000   49.669016827 -125.361717355  1349.8582   5   7   4.6803   2.4662   6.9057  -1.5304  -2.5850   3.3805   0.00    0.0
2021/03/09 19:27:27.000   49.669018652 -125.361717746  1349.8386   5   7   4.6806   2.4661   6.9046  -1.5301  -2.5842   3.3798   0.00    0.0
2021/03/09 19:27:28.000   49.669018124 -125.361717011  1349.5639   5   7   4.6809   2.4659   6.9034  -1.5298  -2.5833   3.3792   0.00    0.0
2021/03/09 19:27:29.000   49.669018957 -125.361716398  1349.5580   5   7   4.6813   2.4657   6.9023  -1.5295  -2.5824   3.3785   0.00    0.0
2021/03/09 19:27:30.000   49.669017712 -125.361715926  1349.5797   5   7   4.6816   2.4656   6.9011  -1.5292  -2.5815   3.3778   0.00    0.0
2021/03/09 19:27:31.000   49.669016281 -125.361715886  1349.5083   5   7   4.6819   2.4654   6.9000  -1.5289  -2.5807   3.3771   0.00    0.0
2021/03/09 19:27:32.000   49.669016631 -125.361716390  1349.6178   5   7   4.6823   2.4653   6.8988  -1.5286  -2.5798   3.3764   0.00    0.0
2021/03/09 19:27:33.000   49.669016811 -125.361715883  1349.4512   5   7   4.6826   2.4651   6.8977  -1.5283  -2.5789   3.3757   0.00    0.0
2021/03/09 19:27:34.000   49.669016829 -125.361715351  1349.5394   5   7   4.6829   2.4650   6.8965  -1.5280  -2.5780   3.3750   0.00    0.0
2021/03/09 19:27:35.000   49.669016212 -125.361716074  1349.7456   5   7   4.6833   2.4648   6.8953  -1.5277  -2.5772   3.3743   0.00    0.0
2021/03/09 19:27:36.000   49.669016053 -125.361717231  1349.8038   5   7   4.6836   2.4646   6.8942  -1.5274  -2.5763   3.3736   0.00    0.0
2021/03/09 19:27:37.000   49.669015645 -125.361717032  1349.8148   5   7   4.6839   2.4645   6.8930  -1.5271  -2.5754   3.3729   0.00    0.0
2021/03/09 19:27:38.000   49.669015267 -125.361717111  1349.4910   5   7   4.6842   2.4643   6.8919  -1.5268  -2.5746   3.3722   0.00    0.0
2021/03/09 19:27:39.000   49.669013768 -125.361717027  1349.2866   5   7   4.6846   2.4642   6.8907  -1.5265  -2.5737   3.3715   0.00    0.0
2021/03/09 19:27:40.000   49.669013327 -125.361715959  1349.4462   5   7   4.6849   2.4640   6.8896  -1.5262  -2.5728   3.3708   0.00    0.0
2021/03/09 19:27:41.000   49.669012500 -125.361715798  1349.4190   5   7   4.6852   2.4639   6.8884  -1.5259  -2.5719   3.3701   0.00    0.0
2021/03/09 19:27:42.000   49.669014186 -125.361715875  1349.6139   5   7   4.6855   2.4637   6.8873  -1.5256  -2.5711   3.3694   0.00    0.0
2021/03/09 19:27:43.000   49.669014223 -125.361715562  1349.4887   5   7   4.6859   2.4636   6.8861  -1.5253  -2.5702   3.3687   0.00    0.0
2021/03/09 19:27:44.000   49.669015752 -125.361715587  1349.4053   5   7   4.6862   2.4634   6.8850  -1.5250  -2.5693   3.3680   0.00    0.0
2021/03/09 19:27:45.000   49.669016173 -125.361716388  1349.4227   5   7   4.6865   2.4632   6.8838  -1.5247  -2.5684   3.3673   0.00    0.0
2021/03/09 19:27:46.000   49.669016350 -125.361716018  1349.3672   5   7   4.6869   2.4631   6.8827  -1.5244  -2.5676   3.3666   0.00    0.0
2021/03/09 19:27:47.000   49.669016524 -125.361716948  1349.3965   5   7   4.6872   2.4629   6.8815  -1.5241  -2.5667   3.3659   0.00    0.0
2021/03/09 19:27:48.000   49.669016721 -125.361717302  1349.3519   5   7   4.6875   2.4628   6.8803  -1.5238  -2.5658   3.3652   0.00    0.0
2021/03/09 19:27:49.000   49.669015239 -125.361716296  1349.3501   5   7   4.6878   2.4626   6.8792  -1.5235  -2.5649   3.3645   0.00    0.0
2021/03/09 19:27:50.000   49.669015300 -125.361716217  1349.2850   5   7   4.6882   2.4625   6.8780  -1.5232  -2.5641   3.3638   0.00    0.0
2021/03/09 19:27:51.000   49.669015179 -125.361716602  1349.4310   5   7   4.6885   2.4623   6.8769  -1.5229  -2.5632   3.3631   0.00    0.0
2021/03/09 19:27:52.000   49.669015922 -125.361718220  1349.3942   5   7   4.6888   2.4622   6.8757  -1.5226  -2.5623   3.3624   0.00    0.0
2021/03/09 19:27:53.000   49.669015808 -125.361719169  1349.4156   5   7   4.6891   2.4620   6.8746  -1.5223  -2.5614   3.3616   0.00    0.0
2021/03/09 19:27:54.000   49.669016452 -125.361721480  1349.5865   5   7   4.6895   2.4618   6.8734  -1.5220  -2.5606   3.3609   0.00    0.0
2021/03/09 19:27:55.000   49.669016502 -125.361721531  1349.4845   5   7   4.6898   2.4617   6.8723  -1.5217  -2.5597   3.3602   0.00    0.0
2021/03/09 19:27:56.000   49.669018039 -125.361721975  1349.4662   5   7   4.6901   2.4615   6.8711  -1.5214  -2.5588   3.3595   0.00    0.0
2021/03/09 19:27:57.000   49.669017991 -125.361721866  1349.5318   5   7   4.6904   2.4614   6.8700  -1.5211  -2.5579   3.3588   0.00    0.0
2021/03/09 19:27:58.000   49.669019721 -125.361722357  1349.6776   5   7   4.6908   2.4612   6.8688  -1.5208  -2.5571   3.3581   0.00    0.0
2021/03/09 19:27:59.000   49.669019324 -125.361722683  1349.8894   5   7   4.6911   2.4611   6.8677  -1.5205  -2.5562   3.3574   0.00    0.0
2021/03/09 19:28:00.000   49.669019313 -125.361721954  1349.9293   5   7   4.6914   2.4609   6.8665  -1.5202  -2.5553   3.3567   0.00    0.0
2021/03/09 19:28:01.000   49.669019586 -125.361722136  1350.1195   5   7   4.6917   2.4608   6.8653  -1.5199  -2.5544   3.3560   0.00    0.0
2021/03/09 19:28:02.000   49.669020695 -125.361721610  1350.3779   5   7   4.6921   2.4606   6.8642  -1.5196  -2.5536   3.3553   0.00    0.0
2021/03/09 19:28:03.000   49.669018519 -125.361720186  1350.3797   5   7   4.6924   2.4605   6.8630  -1.5193  -2.5527   3.3546   0.00    0.0
2021/03/09 19:28:04.000   49.669018291 -125.361720053  1350.5447   5   7   4.6927   2.4603   6.8619  -1.5190  -2.5518   3.3539   0.00    0.0
2021/03/09 19:28:05.000   49.669017284 -125.361718684  1350.3737   5   7   4.6930   2.4602   6.8607  -1.5187  -2.5509   3.3531   0.00    0.0
2021/03/09 19:28:06.000   49.669017516 -125.361718189  1350.1872   5   7   4.6934   2.4600   6.8596  -1.5184  -2.5501   3.3524   0.00    0.0
2021/03/09 19:28:07.000   49.669016623 -125.361717724  1349.9550   5   7   4.6937   2.4599   6.8584  -1.5181  -2.5492   3.3517   0.00    0.0
2021/03/09 19:28:08.000   49.669016705 -125.361718675  1349.8601   5   7   4.6940   2.4597   6.8573  -1.5178  -2.5483   3.3510   0.00    0.0
2021/03/09 19:28:09.000   49.669017393 -125.361718318  1349.7929   5   7   4.6943   2.4596   6.8561  -1.5175  -2.5474   3.3503   0.00    0.0
2021/03/09 19:28:10.000   49.669018674 -125.361719067  1349.8506   5   7   4.6947   2.4594   6.8550  -1.5172  -2.5466   3.3496   0.00    0.0
2021/03/09 19:28:11.000   49.669018189 -125.361719558  1349.8105   5   7   4.6950   2.4592   6.8538  -1.5169  -2.5457   3.3489   0.00    0.0
2021/03/09 19:28:12.000   49.669018036 -125.361720281  1349.7053   5   7   4.6953   2.4591   6.8526  -1.5166  -2.5448   3.3481   0.00    0.0
2021/03/09 19:28:13.000   49.669017470 -125.361719580  1349.5848   5   7   4.6956   2.4589   6.8515  -1.5163  -2.5439   3.3474   0.00    0.0
2021/03/09 19:28:14.000   49.669017035 -125.361719536  1349.5993   5   7   4.6960   2.4588   6.8503  -1.5160  -2.5431   3.3467   0.00    0.0
2021/03/09 19:28:15.000   49.669017169 -125.361719673  1349.5150   5   7   4.6963   2.4586   6.8492  -1.5156  -2.5422   3.3460   0.00    0.0
2021/03/09 19:28:16.000   49.669017567 -125.361720330  1349.5882   5   7   4.6966   2.4585   6.8480  -1.5153  -2.5413   3.3453   0.00    0.0
2021/03/09 19:28:17.000   49.669018030 -125.361720928  1349.6215   5   7   4.6969   2.4583   6.8469  -1.5150  -2.5404   3.3446   0.00    0.0
2021/03/09 19:28:18.000   49.669017117 -125.361720955  1349.6705   5   7   4.6972   2.4582   6.8457  -1.5147  -2.5396   3.3438   0.00    0.0
2021/03/09 19:28:19.000   49.669017167 -125.361720908  1349.8326   5   7   4.6976   2.4580   6.8446  -1.5144  -2.5387   3.3431   0.00    0.0
2021/03/09 19:28:20.000   49.669017292 -125.361721633  1349.5751   5   7   4.6979   2.4579   6.8434  -1.5141  -2.5378   3.3424   0.00    0.0
2021/03/09 19:28:21.000   49.669017102 -125.361721249  1349.6465   5   7   4.6982   2.4577   6.8423  -1.5138  -2.5369   3.3417   0.00    0.0
2021/03/09 19:28:22.000   49.669017347 -125.361721122  1349.6145   5   7   4.6985   2.4576   6.8411  -1.5135  -2.5361   3.3410   0.00    0.0
2021/03/09 19:28:23.000   49.669018353 -125.361721536  1349.7101   5   7   4.6989   2.4574   6.8400  -1.5132  -2.5352   3.3403   0.00    0.0
2021/03/09 19:28:24.000   49.669019046 -125.361721307  1349.6700   5   7   4.6992   2.4573   6.8388  -1.5129  -2.5343   3.3395   0.00    0.0
2021/03/09 19:28:25.000   49.669018693 -125.361720205  1349.6543   5   7   4.6995   2.4571   6.8376  -1.5126  -2.5334   3.3388   0.00    0.0
2021/03/09 19:28:26.000   49.669018723 -125.361720373  1349.6388   5   7   4.6998   2.4570   6.8365  -1.5123  -2.5326   3.3381   0.00    0.0
2021/03/09 19:28:27.000   49.669017422 -125.361720628  1349.8222   5   7   4.7001   2.4568   6.8353  -1.5120  -2.5317   3.3374   0.00    0.0
2021/03/09 19:28:28.000   49.669016209 -125.361720070  1349.6154   5   7   4.7005   2.4567   6.8342  -1.5117  -2.5308   3.3366   0.00    0.0
2021/03/09 19:28:29.000   49.669016755 -125.361719589  1349.8136   5   7   4.7008   2.4565   6.8330  -1.5114  -2.5299   3.3359   0.00    0.0
2021/03/09 19:28:30.000   49.669016759 -125.361719320  1349.9544   5   7   4.7011   2.4564   6.8319  -1.5111  -2.5291   3.3352   0.00    0.0
2021/03/09 19:28:31.000   49.669017163 -125.361719153  1350.2384   5   7   4.7014   2.4562   6.8307  -1.5108  -2.5282   3.3345   0.00    0.0
2021/03/09 19:28:32.000   49.669017849 -125.361718502  1350.5329   5   7   4.7017   2.4561   6.8296  -1.5104  -2.5273   3.3338   0.00    0.0
2021/03/09 19:28:33.000   49.669017451 -125.361718644  1350.5284   5   7   4.7021   2.4559   6.8284  -1.5101  -2.5264   3.3330   0.00    0.0
2021/03/09 19:28:34.000   49.669018801 -125.361719119  1350.5802   5   7   4.7024   2.4558   6.8273  -1.5098  -2.5255   3.3323   0.00    0.0
2021/03/09 19:28:35.000   49.669018569 -125.361718582  1350.6601   5   7   4.7027   2.4556   6.8261  -1.5095  -2.5247   3.3316   0.00    0.0
2021/03/09 19:28:36.000   49.669020066 -125.361718502  1350.5838   5   7   4.7030   2.4555   6.8250  -1.5092  -2.5238   3.3309   0.00    0.0
2021/03/09 19:28:37.000   49.669018894 -125.361718588  1350.3514   5   7   4.7033   2.4553   6.8238  -1.5089  -2.5229   3.3301   0.00    0.0
2021/03/09 19:28:38.000   49.669018519 -125.361718395  1350.4427   5   7   4.7037   2.4552   6.8226  -1.5086  -2.5220   3.3294   0.00    0.0
2021/03/09 19:28:39.000   49.669017278 -125.361717305  1350.3746   5   7   4.7040   2.4551   6.8215  -1.5083  -2.5212   3.3287   0.00    0.0
2021/03/09 19:28:40.000   49.669018293 -125.361716483  1350.3678   5   7   4.7043   2.4549   6.8203  -1.5080  -2.5203   3.3279   0.00    0.0
2021/03/09 19:28:41.000   49.669019070 -125.361716878  1350.6928   5   7   4.7046   2.4548   6.8192  -1.5077  -2.5194   3.3272   0.00    0.0
2021/03/09 19:28:42.000   49.669019594 -125.361716527  1350.7765   5   7   4.7049   2.4546   6.8180  -1.5074  -2.5185   3.3265   0.00    0.0
2021/03/09 19:28:43.000   49.669018603 -125.361716717  1350.6998   5   7   4.7053   2.4545   6.8169  -1.5071  -2.5177   3.3258   0.00    0.0
2021/03/09 19:28:44.000   49.669019709 -125.361718606  1350.8274   5   7   4.7056   2.4543   6.8157  -1.5067  -2.5168   3.3250   0.00    0.0
2021/03/09 19:28:45.000   49.669020800 -125.361719283  1350.9196   5   7   4.7059   2.4542   6.8146  -1.5064  -2.5159   3.3243   0.00    0.0
2021/03/09 19:28:46.000   49.669021357 -125.361720210  1351.1493   5   7   4.7062   2.4540   6.8134  -1.5061  -2.5150   3.3236   0.00    0.0
2021/03/09 19:28:47.000   49.669019773 -125.361719512  1350.8782   5   7   4.7065   2.4539   6.8123  -1.5058  -2.5142   3.3228   0.00    0.0
2021/03/09 19:28:48.000   49.669018722 -125.361718884  1350.8030   5   7   4.7069   2.4537   6.8111  -1.5055  -2.5133   3.3221   0.00    0.0
2021/03/09 19:28:49.000   49.669018921 -125.361719241  1350.7946   5   7   4.7072   2.4536   6.8100  -1.5052  -2.5124   3.3214   0.00    0.0
2021/03/09 19:28:50.000   49.669018752 -125.361718420  1350.5859   5   7   4.7075   2.4534   6.8088  -1.5049  -2.5115   3.3207   0.00    0.0
2021/03/09 19:28:51.000   49.669017859 -125.361718863  1350.4108   5   7   4.7078   2.4533   6.8077  -1.5046  -2.5106   3.3199   0.00    0.0
2021/03/09 19:28:52.000   49.669018068 -125.361718958  1350.5121   5   7   4.7081   2.4531   6.8065  -1.5043  -2.5098   3.3192   0.00    0.0
2021/03/09 19:28:53.000   49.669019140 -125.361717878  1350.4712   5   7   4.7084   2.4530   6.8053  -1.5040  -2.5089   3.3185   0.00    0.0
2021/03/09 19:28:54.000   49.669018886 -125.361718509  1350.6640   5   7   4.7088   2.4529   6.8042  -1.5037  -2.5080   3.3177   0.00    0.0
2021/03/09 19:28:55.000   49.669017885 -125.361718422  1350.6578   5   7   4.7091   2.4527   6.8030  -1.5033  -2.5071   3.3170   0.00    0.0
2021/03/09 19:28:56.000   49.669018223 -125.361719143  1350.6264   5   7   4.7094   2.4526   6.8019  -1.5030  -2.5063   3.3162   0.00    0.0
2021/03/09 19:28:57.000   49.669018602 -125.361719937  1350.5203   5   7   4.7097   2.4524   6.8007  -1.5027  -2.5054   3.3155   0.00    0.0
2021/03/09 19:28:58.000   49.669018048 -125.361718897  1350.5087   5   7   4.7100   2.4523   6.7996  -1.5024  -2.5045   3.3148   0.00    0.0
2021/03/09 19:28:59.000   49.669017631 -125.361718276  1350.3807   5   7   4.7104   2.4521   6.7984  -1.5021  -2.5036   3.3140   0.00    0.0
2021/03/09 19:29:00.000   49.669017554 -125.361718533  1350.5091   5   7   4.7107   2.4520   6.7973  -1.5018  -2.5028   3.3133   0.00    0.0
2021/03/09 19:29:01.000   49.669018598 -125.361719062  1350.4716   5   7   4.7110   2.4518   6.7961  -1.5015  -2.5019   3.3126   0.00    0.0
2021/03/09 19:29:02.000   49.669019903 -125.361719720  1350.5336   5   7   4.7113   2.4517   6.7950  -1.5012  -2.5010   3.3118   0.00    0.0
2021/03/09 19:29:03.000   49.669020593 -125.361719753  1350.6077   5   7   4.7116   2.4515   6.7938  -1.5009  -2.5001   3.3111   0.00    0.0
2021/03/09 19:29:04.000   49.669020425 -125.361719893  1350.7092   5   7   4.7119   2.4514   6.7927  -1.5005  -2.4992   3.3104   0.00    0.0
2021/03/09 19:29:05.000   49.669021652 -125.361719996  1350.8267   5   7   4.7123   2.4513   6.7915  -1.5002  -2.4984   3.3096   0.00    0.0
2021/03/09 19:29:06.000   49.669022703 -125.361721316  1350.7702   5   7   4.7126   2.4511   6.7904  -1.4999  -2.4975   3.3089   0.00    0.0
2021/03/09 19:29:07.000   49.669021857 -125.361720712  1350.4496   5   7   4.7129   2.4510   6.7892  -1.4996  -2.4966   3.3081   0.00    0.0
2021/03/09 19:29:08.000   49.669022534 -125.361721016  1350.4069   5   7   4.7132   2.4508   6.7881  -1.4993  -2.4957   3.3074   0.00    0.0
2021/03/09 19:29:09.000   49.669022110 -125.361721219  1350.2768   5   7   4.7135   2.4507   6.7869  -1.4990  -2.4949   3.3067   0.00    0.0
2021/03/09 19:29:10.000   49.669021880 -125.361721645  1350.1601   5   7   4.7138   2.4505   6.7858  -1.4987  -2.4940   3.3059   0.00    0.0
2021/03/09 19:29:11.000   49.669020254 -125.361720997  1349.9317   5   7   4.7141   2.4504   6.7846  -1.4984  -2.4931   3.3052   0.00    0.0
2021/03/09 19:29:12.000   49.669021378 -125.361721067  1349.8365   5   7   4.7145   2.4502   6.7834  -1.4980  -2.4922   3.3044   0.00    0.0
2021/03/09 19:29:13.000   49.669022581 -125.361721518  1349.9343   5   7   4.7148   2.4501   6.7823  -1.4977  -2.4913   3.3037   0.00    0.0
2021/03/09 19:29:14.000   49.669022662 -125.361721000  1349.7272   5   7   4.7151   2.4500   6.7811  -1.4974  -2.4905   3.3030   0.00    0.0
2021/03/09 19:29:15.000   49.669023407 -125.361720388  1349.7973   5   7   4.7154   2.4498   6.7800  -1.4971  -2.4896   3.3022   0.00    0.0
2021/03/09 19:29:16.000   49.669023868 -125.361720001  1349.9057   5   7   4.7157   2.4497   6.7788  -1.4968  -2.4887   3.3015   0.00    0.0
2021/03/09 19:29:17.000   49.669024202 -125.361719606  1349.9563   5   7   4.7160   2.4495   6.7777  -1.4965  -2.4878   3.3007   0.00    0.0
2021/03/09 19:29:18.000   49.669026310 -125.361719639  1350.1436   5   7   4.7164   2.4494   6.7765  -1.4962  -2.4870   3.3000   0.00    0.0
2021/03/09 19:29:19.000   49.669027136 -125.361718159  1350.3203   5   7   4.7167   2.4493   6.7754  -1.4959  -2.4861   3.2992   0.00    0.0
2021/03/09 19:29:20.000   49.669028228 -125.361717456  1350.3637   5   7   4.7170   2.4491   6.7742  -1.4955  -2.4852   3.2985   0.00    0.0
2021/03/09 19:29:21.000   49.669028335 -125.361718026  1350.2256   5   7   4.7173   2.4490   6.7731  -1.4952  -2.4843   3.2977   0.00    0.0
2021/03/09 19:29:22.000   49.669027431 -125.361716832  1350.1231   5   7   4.7176   2.4488   6.7719  -1.4949  -2.4835   3.2970   0.00    0.0
2021/03/09 19:29:23.000   49.669026934 -125.361717674  1350.0724   5   7   4.7179   2.4487   6.7708  -1.4946  -2.4826   3.2963   0.00    0.0
2021/03/09 19:29:24.000   49.669024975 -125.361717544  1349.8735   5   7   4.7182   2.4485   6.7696  -1.4943  -2.4817   3.2955   0.00    0.0
2021/03/09 19:29:25.000   49.669023802 -125.361717116  1349.8670   5   7   4.7186   2.4484   6.7685  -1.4940  -2.4808   3.2948   0.00    0.0
2021/03/09 19:29:26.000   49.669022551 -125.361717317  1350.0468   5   7   4.7189   2.4483   6.7673  -1.4937  -2.4799   3.2940   0.00    0.0
2021/03/09 19:29:27.000   49.669022156 -125.361716835  1350.1345   5   7   4.7192   2.4481   6.7662  -1.4933  -2.4791   3.2933   0.00    0.0
2021/03/09 19:29:28.000   49.669022470 -125.361718129  1350.2126   5   7   4.7195   2.4480   6.7650  -1.4930  -2.4782   3.2925   0.00    0.0
2021/03/09 19:29:29.000   49.669023796 -125.361718315  1350.3335   5   7   4.7198   2.4478   6.7639  -1.4927  -2.4773   3.2918   0.00    0.0
2021/03/09 19:29:30.000   49.669024556 -125.361717428  1350.3893   5   7   4.7201   2.4477   6.7627  -1.4924  -2.4764   3.2910   0.00    0.0
2021/03/09 19:29:31.000   49.669024096 -125.361717222  1350.4881   5   7   4.7204   2.4476   6.7616  -1.4921  -2.4756   3.2903   0.00    0.0
2021/03/09 19:29:32.000   49.669024489 -125.361716473  1350.5880   5   7   4.7207   2.4474   6.7604  -1.4918  -2.4747   3.2895   0.00    0.0
2021/03/09 19:29:33.000   49.669024222 -125.361717678  1350.9642   5   7   4.7211   2.4473   6.7593  -1.4915  -2.4738   3.2888   0.00    0.0
2021/03/09 19:29:34.000   49.669022879 -125.361717957  1350.6719   5   7   4.7214   2.4471   6.7581  -1.4911  -2.4729   3.2880   0.00    0.0
2021/03/09 19:29:35.000   49.669024188 -125.361717910  1350.5979   5   7   4.7217   2.4470   6.7570  -1.4908  -2.4720   3.2873   0.00    0.0
2021/03/09 19:29:36.000   49.669025077 -125.361719028  1350.8054   5   7   4.7220   2.4469   6.7558  -1.4905  -2.4712   3.2865   0.00    0.0
2021/03/09 19:29:37.000   49.669024395 -125.361718857  1350.8757   5   7   4.7223   2.4467   6.7547  -1.4902  -2.4703   3.2858   0.00    0.0
2021/03/09 19:29:38.000   49.669025145 -125.361718667  1351.0287   5   7   4.7226   2.4466   6.7535  -1.4899  -2.4694   3.2850   0.00    0.0
2021/03/09 19:29:39.000   49.669025302 -125.361718401  1351.0887   5   7   4.7229   2.4464   6.7524  -1.4896  -2.4685   3.2843   0.00    0.0
2021/03/09 19:29:40.000   49.669027024 -125.361719127  1351.2644   5   7   4.7232   2.4463   6.7512  -1.4892  -2.4677   3.2835   0.00    0.0
2021/03/09 19:29:41.000   49.669027032 -125.361718233  1351.2831   5   7   4.7236   2.4462   6.7501  -1.4889  -2.4668   3.2828   0.00    0.0
2021/03/09 19:29:42.000   49.669027347 -125.361717902  1351.2301   5   7   4.7239   2.4460   6.7489  -1.4886  -2.4659   3.2820   0.00    0.0
2021/03/09 19:29:43.000   49.669026836 -125.361718167  1351.3895   5   7   4.7242   2.4459   6.7478  -1.4883  -2.4650   3.2812   0.00    0.0
2021/03/09 19:29:44.000   49.669026449 -125.361717783  1351.3473   5   7   4.7245   2.4457   6.7466  -1.4880  -2.4641   3.2805   0.00    0.0
2021/03/09 19:29:45.000   49.669025364 -125.361717571  1351.1723   5   7   4.7248   2.4456   6.7455  -1.4877  -2.4633   3.2797   0.00    0.0
2021/03/09 19:29:46.000   49.669023857 -125.361717274  1351.2594   5   7   4.7251   2.4455   6.7443  -1.4873  -2.4624   3.2790   0.00    0.0
2021/03/09 19:29:47.000   49.669022700 -125.361718657  1351.2669   5   7   4.7254   2.4453   6.7432  -1.4870  -2.4615   3.2782   0.00    0.0
2021/03/09 19:29:48.000   49.669022623 -125.361719211  1351.1431   5   7   4.7257   2.4452   6.7420  -1.4867  -2.4606   3.2775   0.00    0.0
2021/03/09 19:29:49.000   49.669021530 -125.361719139  1351.0869   5   7   4.7260   2.4450   6.7409  -1.4864  -2.4598   3.2767   0.00    0.0
2021/03/09 19:29:50.000   49.669020961 -125.361718835  1350.9070   5   7   4.7264   2.4449   6.7397  -1.4861  -2.4589   3.2760   0.00    0.0
2021/03/09 19:29:51.000   49.669021537 -125.361718841  1350.7398   5   7   4.7267   2.4448   6.7386  -1.4858  -2.4580   3.2752   0.00    0.0
2021/03/09 19:29:52.000   49.669020554 -125.361718601  1350.6485   5   7   4.7270   2.4446   6.7374  -1.4854  -2.4571   3.2744   0.00    0.0
2021/03/09 19:29:53.000   49.669020158 -125.361719110  1350.2597   5   7   4.7273   2.4445   6.7363  -1.4851  -2.4562   3.2737   0.00    0.0
2021/03/09 19:29:54.000   49.669020122 -125.361719120  1350.2941   5   7   4.7276   2.4444   6.7351  -1.4848  -2.4554   3.2729   0.00    0.0
2021/03/09 19:29:55.000   49.669020222 -125.361719298  1350.4281   5   7   4.7279   2.4442   6.7340  -1.4845  -2.4545   3.2722   0.00    0.0
2021/03/09 19:29:56.000   49.669020328 -125.361719180  1350.5219   5   7   4.7282   2.4441   6.7328  -1.4842  -2.4536   3.2714   0.00    0.0
2021/03/09 19:29:57.000   49.669020143 -125.361719372  1350.1682   5   7   4.7285   2.4440   6.7317  -1.4838  -2.4527   3.2706   0.00    0.0
2021/03/09 19:29:58.000   49.669019419 -125.361719489  1350.1289   5   7   4.7288   2.4438   6.7305  -1.4835  -2.4518   3.2699   0.00    0.0
2021/03/09 19:29:59.000   49.669020011 -125.361719918  1350.4952   5   7   4.7291   2.4437   6.7294  -1.4832  -2.4510   3.2691   0.00    0.0
2021/03/09 19:30:00.000   49.669020006 -125.361720662  1350.5929   5   7   4.7295   2.4435   6.7282  -1.4829  -2.4501   3.2684   0.00    0.0
2021/03/09 19:30:01.000   49.669021674 -125.361720400  1351.0173   5   7   4.7298   2.4434   6.7271  -1.4826  -2.4492   3.2676   0.00    0.0
2021/03/09 19:30:02.000   49.669022175 -125.361719045  1350.9846   5   7   4.7301   2.4433   6.7259  -1.4823  -2.4483   3.2668   0.00    0.0
2021/03/09 19:30:03.000   49.669023076 -125.361718870  1350.9369   5   7   4.7304   2.4431   6.7248  -1.4819  -2.4475   3.2661   0.00    0.0
2021/03/09 19:30:04.000   49.669022929 -125.361718217  1350.7951   5   7   4.7307   2.4430   6.7236  -1.4816  -2.4466   3.2653   0.00    0.0
2021/03/09 19:30:05.000   49.669023110 -125.361718428  1350.7968   5   7   4.7310   2.4429   6.7225  -1.4813  -2.4457   3.2646   0.00    0.0
2021/03/09 19:30:06.000   49.669022124 -125.361718975  1350.5798   5   7   4.7313   2.4427   6.7213  -1.4810  -2.4448   3.2638   0.00    0.0
2021/03/09 19:30:07.001   49.669023856 -125.361719266  1350.5022   5   7   4.7316   2.4426   6.7202  -1.4807  -2.4439   3.2630   0.00    0.0
2021/03/09 19:30:08.000   49.669023463 -125.361718975  1350.4376   5   7   4.7319   2.4425   6.7190  -1.4803  -2.4431   3.2623   0.00    0.0
2021/03/09 19:30:09.000   49.669023322 -125.361719117  1350.4136   5   7   4.7322   2.4423   6.7179  -1.4800  -2.4422   3.2615   0.00    0.0
2021/03/09 19:30:10.000   49.669022945 -125.361718112  1350.5982   5   7   4.7325   2.4422   6.7168  -1.4797  -2.4413   3.2607   0.00    0.0
2021/03/09 19:30:11.000   49.669024020 -125.361718120  1350.6966   5   7   4.7328   2.4421   6.7156  -1.4794  -2.4404   3.2600   0.00    0.0
2021/03/09 19:30:12.000   49.669024432 -125.361717605  1350.6834   5   7   4.7332   2.4419   6.7145  -1.4791  -2.4396   3.2592   0.00    0.0
2021/03/09 19:30:13.000   49.669024667 -125.361717683  1350.4658   5   7   4.7335   2.4418   6.7133  -1.4787  -2.4387   3.2584   0.00    0.0
2021/03/09 19:30:14.000   49.669025153 -125.361716097  1350.5293   5   7   4.7338   2.4416   6.7122  -1.4784  -2.4378   3.2577   0.00    0.0
2021/03/09 19:30:15.000   49.669023971 -125.361716031  1350.3722   5   7   4.7341   2.4415   6.7110  -1.4781  -2.4369   3.2569   0.00    0.0
2021/03/09 19:30:16.000   49.669022682 -125.361715587  1350.1442   5   7   4.7344   2.4414   6.7099  -1.4778  -2.4360   3.2561   0.00    0.0
2021/03/09 19:30:17.000   49.669020117 -125.361715755  1349.8032   5   7   4.7347   2.4412   6.7087  -1.4775  -2.4352   3.2554   0.00    0.0
2021/03/09 19:30:18.000   49.669019846 -125.361716076  1349.7418   5   7   4.7350   2.4411   6.7076  -1.4771  -2.4343   3.2546   0.00    0.0
2021/03/09 19:30:19.000   49.669019752 -125.361717834  1349.8389   5   7   4.7353   2.4410   6.7064  -1.4768  -2.4334   3.2538   0.00    0.0
2021/03/09 19:30:20.000   49.669020807 -125.361719108  1349.8366   5   7   4.7356   2.4408   6.7053  -1.4765  -2.4325   3.2531   0.00    0.0
2021/03/09 19:30:21.000   49.669019087 -125.361720350  1349.5193   5   7   4.7359   2.4407   6.7041  -1.4762  -2.4317   3.2523   0.00    0.0
2021/03/09 19:30:22.000   49.669019161 -125.361720603  1349.5430   5   7   4.7362   2.4406   6.7030  -1.4759  -2.4308   3.2515   0.00    0.0
2021/03/09 19:30:23.000   49.669019235 -125.361719830  1349.7257   5   7   4.7365   2.4404   6.7019  -1.4755  -2.4299   3.2508   0.00    0.0
2021/03/09 19:30:24.000   49.669018317 -125.361719678  1349.6453   5   7   4.7368   2.4403   6.7007  -1.4752  -2.4290   3.2500   0.00    0.0
2021/03/09 19:30:25.000   49.669018448 -125.361719961  1349.8588   5   7   4.7371   2.4402   6.6996  -1.4749  -2.4281   3.2492   0.00    0.0
2021/03/09 19:30:26.000   49.669017754 -125.361720513  1350.0043   5   7   4.7375   2.4400   6.6984  -1.4746  -2.4273   3.2484   0.00    0.0
2021/03/09 19:30:27.000   49.669016923 -125.361720513  1349.9800   5   7   4.7378   2.4399   6.6973  -1.4742  -2.4264   3.2477   0.00    0.0
2021/03/09 19:30:28.000   49.669016039 -125.361720420  1350.0495   5   7   4.7381   2.4398   6.6961  -1.4739  -2.4255   3.2469   0.00    0.0
2021/03/09 19:30:29.000   49.669017449 -125.361720736  1350.1735   5   7   4.7384   2.4397   6.6950  -1.4736  -2.4246   3.2461   0.00    0.0
2021/03/09 19:30:30.000   49.669018572 -125.361720522  1350.2266   5   7   4.7387   2.4395   6.6938  -1.4733  -2.4238   3.2454   0.00    0.0
2021/03/09 19:30:31.000   49.669016516 -125.361720373  1350.2497   5   7   4.7390   2.4394   6.6927  -1.4730  -2.4229   3.2446   0.00    0.0
2021/03/09 19:30:32.000   49.669016461 -125.361720229  1350.2103   5   7   4.7393   2.4393   6.6915  -1.4726  -2.4220   3.2438   0.00    0.0
2021/03/09 19:30:33.000   49.669016778 -125.361719954  1350.2486   5   7   4.7396   2.4391   6.6904  -1.4723  -2.4211   3.2430   0.00    0.0
2021/03/09 19:30:34.000   49.669015802 -125.361719883  1350.2421   5   7   4.7399   2.4390   6.6893  -1.4720  -2.4202   3.2423   0.00    0.0
2021/03/09 19:30:35.000   49.669015568 -125.361719566  1350.1277   5   7   4.7402   2.4389   6.6881  -1.4717  -2.4194   3.2415   0.00    0.0
2021/03/09 19:30:36.000   49.669017748 -125.361720428  1350.4072   5   7   4.7405   2.4387   6.6870  -1.4713  -2.4185   3.2407   0.00    0.0
2021/03/09 19:30:37.000   49.669018550 -125.361721440  1350.3244   5   7   4.7408   2.4386   6.6858  -1.4710  -2.4176   3.2399   0.00    0.0
2021/03/09 19:30:38.000   49.669019290 -125.361721964  1350.4487   5   7   4.7411   2.4385   6.6847  -1.4707  -2.4167   3.2392   0.00    0.0
2021/03/09 19:30:39.000   49.669018702 -125.361722643  1350.2212   5   7   4.7414   2.4383   6.6835  -1.4704  -2.4158   3.2384   0.00    0.0
2021/03/09 19:30:40.000   49.669018139 -125.361721492  1349.9724   5   7   4.7417   2.4382   6.6824  -1.4701  -2.4150   3.2376   0.00    0.0
2021/03/09 19:30:41.000   49.669018488 -125.361720637  1350.0193   5   7   4.7420   2.4381   6.6812  -1.4697  -2.4141   3.2368   0.00    0.0
2021/03/09 19:30:42.000   49.669016957 -125.361719348  1349.8946   5   7   4.7423   2.4379   6.6801  -1.4694  -2.4132   3.2361   0.00    0.0
2021/03/09 19:30:43.000   49.669017119 -125.361718727  1350.0274   5   7   4.7426   2.4378   6.6790  -1.4691  -2.4123   3.2353   0.00    0.0
2021/03/09 19:30:44.000   49.669016786 -125.361717973  1350.2481   5   7   4.7429   2.4377   6.6778  -1.4688  -2.4115   3.2345   0.00    0.0
2021/03/09 19:30:45.000   49.669018114 -125.361717101  1350.5531   5   7   4.7433   2.4376   6.6767  -1.4684  -2.4106   3.2337   0.00    0.0
2021/03/09 19:30:46.000   49.669018157 -125.361715937  1350.6147   5   7   4.7436   2.4374   6.6755  -1.4681  -2.4097   3.2329   0.00    0.0
2021/03/09 19:30:47.000   49.669018124 -125.361714514  1350.5967   5   7   4.7439   2.4373   6.6744  -1.4678  -2.4088   3.2322   0.00    0.0
2021/03/09 19:30:48.000   49.669018805 -125.361714400  1350.6878   5   7   4.7442   2.4372   6.6732  -1.4675  -2.4079   3.2314   0.00    0.0
2021/03/09 19:30:49.000   49.669020358 -125.361715505  1350.8545   5   7   4.7445   2.4370   6.6721  -1.4671  -2.4071   3.2306   0.00    0.0
2021/03/09 19:30:50.000   49.669020910 -125.361715652  1350.9124   5   7   4.7448   2.4369   6.6710  -1.4668  -2.4062   3.2298   0.00    0.0
2021/03/09 19:30:51.000   49.669019885 -125.361715685  1350.7889   5   7   4.7451   2.4368   6.6698  -1.4665  -2.4053   3.2290   0.00    0.0
2021/03/09 19:30:52.000   49.669020822 -125.361715871  1350.7658   5   7   4.7454   2.4367   6.6687  -1.4662  -2.4044   3.2283   0.00    0.0
2021/03/09 19:30:53.000   49.669020129 -125.361716164  1350.7121   5   7   4.7457   2.4365   6.6675  -1.4658  -2.4036   3.2275   0.00    0.0
2021/03/09 19:30:54.000   49.669019829 -125.361715961  1350.5329   5   7   4.7460   2.4364   6.6664  -1.4655  -2.4027   3.2267   0.00    0.0
2021/03/09 19:30:55.000   49.669020401 -125.361715846  1350.4394   5   7   4.7463   2.4363   6.6653  -1.4652  -2.4018   3.2259   0.00    0.0
2021/03/09 19:30:56.000   49.669019370 -125.361716611  1350.4580   5   7   4.7466   2.4361   6.6641  -1.4649  -2.4009   3.2251   0.00    0.0
2021/03/09 19:30:57.000   49.669020476 -125.361716810  1350.4176   5   7   4.7469   2.4360   6.6630  -1.4645  -2.4000   3.2244   0.00    0.0
2021/03/09 19:30:58.000   49.669020739 -125.361716322  1350.3576   5   7   4.7472   2.4359   6.6618  -1.4642  -2.3992   3.2236   0.00    0.0
2021/03/09 19:30:59.000   49.669020839 -125.361716075  1350.4944   5   7   4.7475   2.4358   6.6607  -1.4639  -2.3983   3.2228   0.00    0.0
2021/03/09 19:31:00.000   49.669021047 -125.361716299  1350.4728   5   7   4.7478   2.4356   6.6595  -1.4636  -2.3974   3.2220   0.00    0.0
2021/03/09 19:31:01.000   49.669020022 -125.361715998  1350.4502   5   7   4.7481   2.4355   6.6584  -1.4632  -2.3965   3.2212   0.00    0.0
2021/03/09 19:31:02.000   49.669019002 -125.361716073  1350.2940   5   7   4.7484   2.4354   6.6573  -1.4629  -2.3957   3.2204   0.00    0.0
2021/03/09 19:31:03.000   49.669017802 -125.361716250  1350.2245   5   7   4.7487   2.4352   6.6561  -1.4626  -2.3948   3.2197   0.00    0.0
2021/03/09 19:31:04.000   49.669017097 -125.361715841  1350.2165   5   7   4.7490   2.4351   6.6550  -1.4623  -2.3939   3.2189   0.00    0.0
2021/03/09 19:31:05.000   49.669015763 -125.361715127  1350.1237   5   7   4.7493   2.4350   6.6538  -1.4619  -2.3930   3.2181   0.00    0.0
2021/03/09 19:31:06.000   49.669017700 -125.361715849  1350.0802   5   7   4.7496   2.4349   6.6527  -1.4616  -2.3921   3.2173   0.00    0.0
2021/03/09 19:31:07.000   49.669018898 -125.361716453  1350.2766   5   7   4.7499   2.4347   6.6516  -1.4613  -2.3913   3.2165   0.00    0.0
2021/03/09 19:31:08.000   49.669019419 -125.361717879  1350.3752   5   7   4.7502   2.4346   6.6504  -1.4610  -2.3904   3.2157   0.00    0.0
2021/03/09 19:31:09.000   49.669019800 -125.361718795  1350.4705   5   7   4.7505   2.4345   6.6493  -1.4606  -2.3895   3.2149   0.00    0.0
2021/03/09 19:31:10.000   49.669019572 -125.361720625  1350.3151   5   7   4.7508   2.4344   6.6481  -1.4603  -2.3886   3.2142   0.00    0.0
2021/03/09 19:31:11.000   49.669019782 -125.361720674  1350.2387   5   7   4.7511   2.4342   6.6470  -1.4600  -2.3878   3.2134   0.00    0.0
2021/03/09 19:31:12.000   49.669020131 -125.361720729  1350.2213   5   7   4.7514   2.4341   6.6459  -1.4597  -2.3869   3.2126   0.00    0.0
2021/03/09 19:31:13.000   49.669020942 -125.361720801  1350.0487   5   7   4.7517   2.4340   6.6447  -1.4593  -2.3860   3.2118   0.00    0.0
2021/03/09 19:31:14.000   49.669020345 -125.361721030  1350.2272   5   7   4.7520   2.4339   6.6436  -1.4590  -2.3851   3.2110   0.00    0.0
2021/03/09 19:31:15.000   49.669021034 -125.361721506  1350.2148   5   7   4.7523   2.4337   6.6425  -1.4587  -2.3842   3.2102   0.00    0.0
2021/03/09 19:31:16.000   49.669023264 -125.361721389  1350.5446   5   7   4.7526   2.4336   6.6413  -1.4584  -2.3834   3.2094   0.00    0.0
2021/03/09 19:31:17.000   49.669023770 -125.361720507  1350.5408   5   7   4.7529   2.4335   6.6402  -1.4580  -2.3825   3.2086   0.00    0.0
2021/03/09 19:31:18.000   49.669024496 -125.361719822  1350.4511   5   7   4.7532   2.4334   6.6390  -1.4577  -2.3816   3.2078   0.00    0.0
2021/03/09 19:31:19.000   49.669024930 -125.361720081  1350.6654   5   7   4.7535   2.4332   6.6379  -1.4574  -2.3807   3.2071   0.00    0.0
2021/03/09 19:31:20.000   49.669025418 -125.361721290  1350.7763   5   7   4.7538   2.4331   6.6368  -1.4571  -2.3799   3.2063   0.00    0.0
2021/03/09 19:31:21.000   49.669025923 -125.361721093  1350.8410   5   7   4.7541   2.4330   6.6356  -1.4567  -2.3790   3.2055   0.00    0.0
2021/03/09 19:31:22.000   49.669025716 -125.361721386  1350.7571   5   7   4.7544   2.4329   6.6345  -1.4564  -2.3781   3.2047   0.00    0.0
2021/03/09 19:31:23.000   49.669026896 -125.361721706  1350.4356   5   7   4.7547   2.4327   6.6333  -1.4561  -2.3772   3.2039   0.00    0.0
2021/03/09 19:31:24.000   49.669026180 -125.361722517  1350.3529   5   7   4.7550   2.4326   6.6322  -1.4557  -2.3763   3.2031   0.00    0.0
2021/03/09 19:31:25.000   49.669025119 -125.361722320  1350.0647   5   7   4.7553   2.4325   6.6311  -1.4554  -2.3755   3.2023   0.00    0.0
2021/03/09 19:31:26.000   49.669023852 -125.361721728  1349.8677   5   7   4.7556   2.4324   6.6299  -1.4551  -2.3746   3.2015   0.00    0.0
2021/03/09 19:31:27.000   49.669022162 -125.361720889  1349.7092   5   7   4.7559   2.4322   6.6288  -1.4548  -2.3737   3.2007   0.00    0.0
2021/03/09 19:31:28.000   49.669022667 -125.361720782  1349.8189   5   7   4.7562   2.4321   6.6277  -1.4544  -2.3728   3.1999   0.00    0.0
2021/03/09 19:31:29.000   49.669023051 -125.361720988  1349.8953   5   7   4.7565   2.4320   6.6265  -1.4541  -2.3720   3.1991   0.00    0.0
2021/03/09 19:31:30.000   49.669022886 -125.361720966  1349.9368   5   7   4.7568   2.4319   6.6254  -1.4538  -2.3711   3.1983   0.00    0.0
2021/03/09 19:31:31.000   49.669022827 -125.361719588  1350.0639   5   7   4.7571   2.4318   6.6243  -1.4534  -2.3702   3.1975   0.00    0.0
2021/03/09 19:31:32.000   49.669023440 -125.361720222  1350.1756   5   7   4.7574   2.4316   6.6231  -1.4531  -2.3693   3.1967   0.00    0.0
2021/03/09 19:31:33.000   49.669021936 -125.361719849  1350.2274   5   7   4.7577   2.4315   6.6220  -1.4528  -2.3685   3.1959   0.00    0.0
2021/03/09 19:31:34.000   49.669020584 -125.361719385  1350.1061   5   7   4.7580   2.4314   6.6208  -1.4525  -2.3676   3.1952   0.00    0.0
2021/03/09 19:31:35.000   49.669019223 -125.361718662  1349.7947   5   7   4.7583   2.4313   6.6197  -1.4521  -2.3667   3.1944   0.00    0.0
2021/03/09 19:31:36.000   49.669019613 -125.361718360  1349.8323   5   7   4.7586   2.4311   6.6186  -1.4518  -2.3658   3.1936   0.00    0.0
2021/03/09 19:31:37.000   49.669019035 -125.361718346  1349.8728   5   7   4.7589   2.4310   6.6174  -1.4515  -2.3649   3.1928   0.00    0.0
2021/03/09 19:31:38.000   49.669017862 -125.361717954  1349.9337   5   7   4.7592   2.4309   6.6163  -1.4511  -2.3641   3.1920   0.00    0.0
2021/03/09 19:31:39.000   49.669016742 -125.361717826  1349.9364   5   7   4.7595   2.4308   6.6152  -1.4508  -2.3632   3.1912   0.00    0.0
2021/03/09 19:31:40.000   49.669015760 -125.361716689  1349.8342   5   7   4.7598   2.4307   6.6140  -1.4505  -2.3623   3.1904   0.00    0.0
2021/03/09 19:31:41.000   49.669017869 -125.361716391  1349.9062   5   7   4.7601   2.4305   6.6129  -1.4502  -2.3614   3.1896   0.00    0.0
2021/03/09 19:31:42.000   49.669016518 -125.361716068  1349.7777   5   7   4.7604   2.4304   6.6118  -1.4498  -2.3606   3.1888   0.00    0.0
